{
"type": "FeatureCollection",
"name": "escuelas_f2",
"crs": { "type": "name", "properties": { "name": "urn:ogc:def:crs:OGC:1.3:CRS84" } },
"features": [
{ "type": "Feature", "properties": { "cat": 1, "pk_uid": 1, "nombre": "ADVENTISTA DE COSTA RICA", "canton": "SAN JOSE" }, "geometry": { "type": "Point", "coordinates": [ -84.115945039999986, 9.9279804 ] } },
{ "type": "Feature", "properties": { "cat": 2, "pk_uid": 2, "nombre": "ANTONIO JOSE DE SUCRE", "canton": "SAN JOSE" }, "geometry": { "type": "Point", "coordinates": [ -84.120994539999984, 9.9603131 ] } },
{ "type": "Feature", "properties": { "cat": 3, "pk_uid": 3, "nombre": "BILINGUE HORIZONTE 2000", "canton": "SAN JOSE" }, "geometry": { "type": "Point", "coordinates": [ -84.120994539999984, 9.9603131 ] } },
{ "type": "Feature", "properties": { "cat": 4, "pk_uid": 4, "nombre": "BILINGUE SAN ESTEBAN", "canton": "SAN JOSE" }, "geometry": { "type": "Point", "coordinates": [ -84.105493679999981, 9.92302351 ] } },
{ "type": "Feature", "properties": { "cat": 5, "pk_uid": 5, "nombre": "BRITANICO DE COSTA RICA", "canton": "SAN JOSE" }, "geometry": { "type": "Point", "coordinates": [ -84.14688938, 9.9543451 ] } },
{ "type": "Feature", "properties": { "cat": 6, "pk_uid": 6, "nombre": "BUENAVENTURA CORRALES", "canton": "SAN JOSE" }, "geometry": { "type": "Point", "coordinates": [ -84.095032469999978, 9.94703279 ] } },
{ "type": "Feature", "properties": { "cat": 7, "pk_uid": 7, "nombre": "CARLOS SANABRIA MORA", "canton": "SAN JOSE" }, "geometry": { "type": "Point", "coordinates": [ -84.156601059999986, 9.95709318 ] } },
{ "type": "Feature", "properties": { "cat": 8, "pk_uid": 8, "nombre": "CAROLINA DENT ALVARADO", "canton": "SAN JOSE" }, "geometry": { "type": "Point", "coordinates": [ -84.115945039999986, 9.9279804 ] } },
{ "type": "Feature", "properties": { "cat": 9, "pk_uid": 9, "nombre": "CENTRAL SAN SEBASTIAN", "canton": "SAN JOSE" }, "geometry": { "type": "Point", "coordinates": [ -84.105493679999981, 9.92302351 ] } },
{ "type": "Feature", "properties": { "cat": 10, "pk_uid": 10, "nombre": "CIUDADELA DE PAVAS", "canton": "SAN JOSE" }, "geometry": { "type": "Point", "coordinates": [ -84.156601059999986, 9.95709318 ] } },
{ "type": "Feature", "properties": { "cat": 11, "pk_uid": 11, "nombre": "CORAZON DE JESUS", "canton": "SAN JOSE" }, "geometry": { "type": "Point", "coordinates": [ -84.120994539999984, 9.9603131 ] } },
{ "type": "Feature", "properties": { "cat": 12, "pk_uid": 12, "nombre": "COSTA RICA", "canton": "SAN JOSE" }, "geometry": { "type": "Point", "coordinates": [ -84.10882664, 9.95234293 ] } },
{ "type": "Feature", "properties": { "cat": 13, "pk_uid": 13, "nombre": "CRISTIANO ASAM DE DIOS", "canton": "SAN JOSE" }, "geometry": { "type": "Point", "coordinates": [ -84.073075159999988, 9.93179977 ] } },
{ "type": "Feature", "properties": { "cat": 14, "pk_uid": 14, "nombre": "DR. JAIM WEIZMAN", "canton": "SAN JOSE" }, "geometry": { "type": "Point", "coordinates": [ -84.123658609999978, 9.95082462 ] } },
{ "type": "Feature", "properties": { "cat": 15, "pk_uid": 15, "nombre": "DR.JOSE MA. CASTRO MADRIZ", "canton": "SAN JOSE" }, "geometry": { "type": "Point", "coordinates": [ -84.087741799999989, 9.93205576 ] } },
{ "type": "Feature", "properties": { "cat": 16, "pk_uid": 16, "nombre": "EL CARMELO", "canton": "SAN JOSE" }, "geometry": { "type": "Point", "coordinates": [ -84.09796846, 9.93105553 ] } },
{ "type": "Feature", "properties": { "cat": 17, "pk_uid": 17, "nombre": "EL ROSARIO", "canton": "SAN JOSE" }, "geometry": { "type": "Point", "coordinates": [ -84.087741799999989, 9.93205576 ] } },
{ "type": "Feature", "properties": { "cat": 18, "pk_uid": 18, "nombre": "FINCA LA CAJA", "canton": "SAN JOSE" }, "geometry": { "type": "Point", "coordinates": [ -84.120994539999984, 9.9603131 ] } },
{ "type": "Feature", "properties": { "cat": 19, "pk_uid": 19, "nombre": "FINCA SAN JUAN", "canton": "SAN JOSE" }, "geometry": { "type": "Point", "coordinates": [ -84.186974719999981, 9.97261637 ] } },
{ "type": "Feature", "properties": { "cat": 20, "pk_uid": 20, "nombre": "GENERAL MANUEL BELGRANO", "canton": "SAN JOSE" }, "geometry": { "type": "Point", "coordinates": [ -84.115945039999986, 9.9279804 ] } },
{ "type": "Feature", "properties": { "cat": 21, "pk_uid": 21, "nombre": "GRAYMAR SCHOOL", "canton": "SAN JOSE" }, "geometry": { "type": "Point", "coordinates": [ -84.092714229999984, 9.93943693 ] } },
{ "type": "Feature", "properties": { "cat": 22, "pk_uid": 22, "nombre": "HATILLO 2", "canton": "SAN JOSE" }, "geometry": { "type": "Point", "coordinates": [ -84.115945039999986, 9.9279804 ] } },
{ "type": "Feature", "properties": { "cat": 23, "pk_uid": 23, "nombre": "HEBREW DAY SCHOOL JABAD", "canton": "SAN JOSE" }, "geometry": { "type": "Point", "coordinates": [ -84.14688938, 9.9543451 ] } },
{ "type": "Feature", "properties": { "cat": 24, "pk_uid": 24, "nombre": "HUMBOLDT", "canton": "SAN JOSE" }, "geometry": { "type": "Point", "coordinates": [ -84.14688938, 9.9543451 ] } },
{ "type": "Feature", "properties": { "cat": 25, "pk_uid": 25, "nombre": "INST. CIENT.BIL. DEL SUR", "canton": "SAN JOSE" }, "geometry": { "type": "Point", "coordinates": [ -84.105493679999981, 9.92302351 ] } },
{ "type": "Feature", "properties": { "cat": 26, "pk_uid": 26, "nombre": "INST.DES. DE INTELIGENCIA", "canton": "SAN JOSE" }, "geometry": { "type": "Point", "coordinates": [ -84.115945039999986, 9.9279804 ] } },
{ "type": "Feature", "properties": { "cat": 27, "pk_uid": 27, "nombre": "INSTITUTO SANT MAR", "canton": "SAN JOSE" }, "geometry": { "type": "Point", "coordinates": [ -84.156601059999986, 9.95709318 ] } },
{ "type": "Feature", "properties": { "cat": 28, "pk_uid": 28, "nombre": "INTEGRAL SEM", "canton": "SAN JOSE" }, "geometry": { "type": "Point", "coordinates": [ -84.164941569999982, 9.95553294 ] } },
{ "type": "Feature", "properties": { "cat": 29, "pk_uid": 29, "nombre": "JORGE DE BRAVO", "canton": "SAN JOSE" }, "geometry": { "type": "Point", "coordinates": [ -84.115945039999986, 9.9279804 ] } },
{ "type": "Feature", "properties": { "cat": 30, "pk_uid": 30, "nombre": "JOSE FIDEL TRISTAN", "canton": "SAN JOSE" }, "geometry": { "type": "Point", "coordinates": [ -84.10882664, 9.95234293 ] } },
{ "type": "Feature", "properties": { "cat": 31, "pk_uid": 31, "nombre": "JUAN RAFAEL MORA  PORRAS", "canton": "SAN JOSE" }, "geometry": { "type": "Point", "coordinates": [ -84.10882664, 9.95234293 ] } },
{ "type": "Feature", "properties": { "cat": 32, "pk_uid": 32, "nombre": "KENELY DE COLORES", "canton": "SAN JOSE" }, "geometry": { "type": "Point", "coordinates": [ -84.115945039999986, 9.9279804 ] } },
{ "type": "Feature", "properties": { "cat": 33, "pk_uid": 33, "nombre": "LA PEREGRINA", "canton": "SAN JOSE" }, "geometry": { "type": "Point", "coordinates": [ -84.120994539999984, 9.9603131 ] } },
{ "type": "Feature", "properties": { "cat": 34, "pk_uid": 34, "nombre": "LA SALLE", "canton": "SAN JOSE" }, "geometry": { "type": "Point", "coordinates": [ -84.123658609999978, 9.95082462 ] } },
{ "type": "Feature", "properties": { "cat": 35, "pk_uid": 35, "nombre": "LAS BRISAS DEL VIRILLA", "canton": "SAN JOSE" }, "geometry": { "type": "Point", "coordinates": [ -84.120994539999984, 9.9603131 ] } },
{ "type": "Feature", "properties": { "cat": 36, "pk_uid": 36, "nombre": "LIC. DANIEL ODUBER QUIROS", "canton": "SAN JOSE" }, "geometry": { "type": "Point", "coordinates": [ -84.164941569999982, 9.95553294 ] } },
{ "type": "Feature", "properties": { "cat": 37, "pk_uid": 37, "nombre": "LOMAS DEL RIO", "canton": "SAN JOSE" }, "geometry": { "type": "Point", "coordinates": [ -84.186974719999981, 9.97261637 ] } },
{ "type": "Feature", "properties": { "cat": 38, "pk_uid": 38, "nombre": "LOS ANGELES", "canton": "SAN JOSE" }, "geometry": { "type": "Point", "coordinates": [ -84.123658609999978, 9.95082462 ] } },
{ "type": "Feature", "properties": { "cat": 39, "pk_uid": 39, "nombre": "MARCELINO GARCIA FLAMENCO", "canton": "SAN JOSE" }, "geometry": { "type": "Point", "coordinates": [ -84.094580659999977, 9.94318357 ] } },
{ "type": "Feature", "properties": { "cat": 40, "pk_uid": 40, "nombre": "MARIA AUXILIADORA", "canton": "SAN JOSE" }, "geometry": { "type": "Point", "coordinates": [ -84.09796846, 9.93105553 ] } },
{ "type": "Feature", "properties": { "cat": 41, "pk_uid": 41, "nombre": "MARIA AUXILIADORA", "canton": "SAN JOSE" }, "geometry": { "type": "Point", "coordinates": [ -84.09796846, 9.93105553 ] } },
{ "type": "Feature", "properties": { "cat": 42, "pk_uid": 42, "nombre": "MIGUEL DE CERVANTES SAAVEDRA", "canton": "SAN JOSE" }, "geometry": { "type": "Point", "coordinates": [ -84.115945039999986, 9.9279804 ] } },
{ "type": "Feature", "properties": { "cat": 43, "pk_uid": 43, "nombre": "MONTE ESPERANZA", "canton": "SAN JOSE" }, "geometry": { "type": "Point", "coordinates": [ -84.105493679999981, 9.92302351 ] } },
{ "type": "Feature", "properties": { "cat": 44, "pk_uid": 44, "nombre": "NACIONES UNIDAS", "canton": "SAN JOSE" }, "geometry": { "type": "Point", "coordinates": [ -84.098965349999986, 9.93979528 ] } },
{ "type": "Feature", "properties": { "cat": 45, "pk_uid": 45, "nombre": "NAPOLEON QUESADA SALAZAR", "canton": "SAN JOSE" }, "geometry": { "type": "Point", "coordinates": [ -84.073075159999988, 9.93179977 ] } },
{ "type": "Feature", "properties": { "cat": 46, "pk_uid": 46, "nombre": "OMAR DENGO GUERRERO", "canton": "SAN JOSE" }, "geometry": { "type": "Point", "coordinates": [ -84.09796846, 9.93105553 ] } },
{ "type": "Feature", "properties": { "cat": 47, "pk_uid": 47, "nombre": "OTTO HUBBE", "canton": "SAN JOSE" }, "geometry": { "type": "Point", "coordinates": [ -84.120994539999984, 9.9603131 ] } },
{ "type": "Feature", "properties": { "cat": 48, "pk_uid": 48, "nombre": "PACIFICA FERNANDEZ O.", "canton": "SAN JOSE" }, "geometry": { "type": "Point", "coordinates": [ -84.115945039999986, 9.9279804 ] } },
{ "type": "Feature", "properties": { "cat": 49, "pk_uid": 49, "nombre": "PEDAGOGICO COSTARRICENSE", "canton": "SAN JOSE" }, "geometry": { "type": "Point", "coordinates": [ -84.14688938, 9.9543451 ] } },
{ "type": "Feature", "properties": { "cat": 50, "pk_uid": 50, "nombre": "QUINCE DE SETIEMBRE", "canton": "SAN JOSE" }, "geometry": { "type": "Point", "coordinates": [ -84.115945039999986, 9.9279804 ] } },
{ "type": "Feature", "properties": { "cat": 51, "pk_uid": 51, "nombre": "RAFAEL FRANCISCO OSEJO", "canton": "SAN JOSE" }, "geometry": { "type": "Point", "coordinates": [ -84.123658609999978, 9.95082462 ] } },
{ "type": "Feature", "properties": { "cat": 52, "pk_uid": 52, "nombre": "RAMIRO AGUILAR VILLANAVES", "canton": "SAN JOSE" }, "geometry": { "type": "Point", "coordinates": [ -84.10882664, 9.95234293 ] } },
{ "type": "Feature", "properties": { "cat": 53, "pk_uid": 53, "nombre": "REP PERU-VITALIA MADRIGAL", "canton": "SAN JOSE" }, "geometry": { "type": "Point", "coordinates": [ -84.095032469999978, 9.94703279 ] } },
{ "type": "Feature", "properties": { "cat": 54, "pk_uid": 54, "nombre": "REPUBLICA DE ARGENTINA", "canton": "SAN JOSE" }, "geometry": { "type": "Point", "coordinates": [ -84.10882664, 9.95234293 ] } },
{ "type": "Feature", "properties": { "cat": 55, "pk_uid": 55, "nombre": "REPUBLICA DE CHILE", "canton": "SAN JOSE" }, "geometry": { "type": "Point", "coordinates": [ -84.092714229999984, 9.93943693 ] } },
{ "type": "Feature", "properties": { "cat": 56, "pk_uid": 56, "nombre": "REPUBLICA DE HAITI", "canton": "SAN JOSE" }, "geometry": { "type": "Point", "coordinates": [ -84.105493679999981, 9.92302351 ] } },
{ "type": "Feature", "properties": { "cat": 57, "pk_uid": 57, "nombre": "REPUBLICA DE MEXICO", "canton": "SAN JOSE" }, "geometry": { "type": "Point", "coordinates": [ -84.088376419999989, 9.94936491 ] } },
{ "type": "Feature", "properties": { "cat": 58, "pk_uid": 58, "nombre": "REPUBLICA DE NICARAGUA", "canton": "SAN JOSE" }, "geometry": { "type": "Point", "coordinates": [ -84.103213599999989, 9.9346148 ] } },
{ "type": "Feature", "properties": { "cat": 59, "pk_uid": 59, "nombre": "REPUBLICA DE PARAGUAY", "canton": "SAN JOSE" }, "geometry": { "type": "Point", "coordinates": [ -84.115945039999986, 9.9279804 ] } },
{ "type": "Feature", "properties": { "cat": 60, "pk_uid": 60, "nombre": "REPUBLICA DOMINICANA", "canton": "SAN JOSE" }, "geometry": { "type": "Point", "coordinates": [ -84.088776979999977, 9.92588666 ] } },
{ "type": "Feature", "properties": { "cat": 61, "pk_uid": 61, "nombre": "RICARDO JIMENEZ OREAMUNO", "canton": "SAN JOSE" }, "geometry": { "type": "Point", "coordinates": [ -84.092714229999984, 9.93943693 ] } },
{ "type": "Feature", "properties": { "cat": 62, "pk_uid": 62, "nombre": "RINCON GRANDE", "canton": "SAN JOSE" }, "geometry": { "type": "Point", "coordinates": [ -84.174787699999982, 9.96625911000001 ] } },
{ "type": "Feature", "properties": { "cat": 63, "pk_uid": 63, "nombre": "SAGRADA REINA DE LOS ANG.", "canton": "SAN JOSE" }, "geometry": { "type": "Point", "coordinates": [ -84.105493679999981, 9.92302351 ] } },
{ "type": "Feature", "properties": { "cat": 64, "pk_uid": 64, "nombre": "SAGRADO CORAZON", "canton": "SAN JOSE" }, "geometry": { "type": "Point", "coordinates": [ -84.098963899999987, 9.9443507 ] } },
{ "type": "Feature", "properties": { "cat": 65, "pk_uid": 65, "nombre": "SAINT JOHN VIANEY", "canton": "SAN JOSE" }, "geometry": { "type": "Point", "coordinates": [ -84.088776979999977, 9.92588666 ] } },
{ "type": "Feature", "properties": { "cat": 66, "pk_uid": 66, "nombre": "SAINT VALENTINE", "canton": "SAN JOSE" }, "geometry": { "type": "Point", "coordinates": [ -84.115945039999986, 9.9279804 ] } },
{ "type": "Feature", "properties": { "cat": 67, "pk_uid": 67, "nombre": "SALESIANO DON BOSCO", "canton": "SAN JOSE" }, "geometry": { "type": "Point", "coordinates": [ -88.550450499999982, 0.0058147 ] } },
{ "type": "Feature", "properties": { "cat": 68, "pk_uid": 68, "nombre": "SAN ANGELO", "canton": "SAN JOSE" }, "geometry": { "type": "Point", "coordinates": [ -84.073075159999988, 9.93179977 ] } },
{ "type": "Feature", "properties": { "cat": 69, "pk_uid": 69, "nombre": "SANTA CATALINA DE SENA", "canton": "SAN JOSE" }, "geometry": { "type": "Point", "coordinates": [ -84.156601059999986, 9.95709318 ] } },
{ "type": "Feature", "properties": { "cat": 70, "pk_uid": 70, "nombre": "SANTA LUCIA", "canton": "SAN JOSE" }, "geometry": { "type": "Point", "coordinates": [ -84.156601059999986, 9.95709318 ] } },
{ "type": "Feature", "properties": { "cat": 71, "pk_uid": 71, "nombre": "SANTA MARTA", "canton": "SAN JOSE" }, "geometry": { "type": "Point", "coordinates": [ -84.088776979999977, 9.92588666 ] } },
{ "type": "Feature", "properties": { "cat": 72, "pk_uid": 72, "nombre": "VIRGEN DE GUADALUPE", "canton": "SAN JOSE" }, "geometry": { "type": "Point", "coordinates": [ -84.105493679999981, 9.92302351 ] } },
{ "type": "Feature", "properties": { "cat": 73, "pk_uid": 73, "nombre": "WASHINGTON SCHOOL", "canton": "SAN JOSE" }, "geometry": { "type": "Point", "coordinates": [ -84.098963899999987, 9.9443507 ] } },
{ "type": "Feature", "properties": { "cat": 74, "pk_uid": 74, "nombre": "WHITMAN", "canton": "SAN JOSE" }, "geometry": { "type": "Point", "coordinates": [ -84.088376419999989, 9.94936491 ] } },
{ "type": "Feature", "properties": { "cat": 75, "pk_uid": 75, "nombre": "AEROPUERTO", "canton": "ALAJUELA" }, "geometry": { "type": "Point", "coordinates": [ -84.235537079999986, 10.01332075 ] } },
{ "type": "Feature", "properties": { "cat": 76, "pk_uid": 76, "nombre": "ALBERTO ECHANDI MONTERO", "canton": "ALAJUELA" }, "geometry": { "type": "Point", "coordinates": [ -84.227361029999983, 10.09163756 ] } },
{ "type": "Feature", "properties": { "cat": 77, "pk_uid": 77, "nombre": "ASCENSION ESQUIVEL IBARRA", "canton": "ALAJUELA" }, "geometry": { "type": "Point", "coordinates": [ -84.237153189999987, 10.02785461 ] } },
{ "type": "Feature", "properties": { "cat": 78, "pk_uid": 78, "nombre": "AUTUMN MILLER", "canton": "ALAJUELA" }, "geometry": { "type": "Point", "coordinates": [ -84.212896549999982, 10.13423667 ] } },
{ "type": "Feature", "properties": { "cat": 79, "pk_uid": 79, "nombre": "BERNARDO SOTO ALFARO", "canton": "ALAJUELA" }, "geometry": { "type": "Point", "coordinates": [ -84.237153189999987, 10.02785461 ] } },
{ "type": "Feature", "properties": { "cat": 80, "pk_uid": 80, "nombre": "BILINGUE ABRAHAM", "canton": "ALAJUELA" }, "geometry": { "type": "Point", "coordinates": [ -84.340371029999986, 9.95432285 ] } },
{ "type": "Feature", "properties": { "cat": 81, "pk_uid": 81, "nombre": "BRI-BRI", "canton": "ALAJUELA" }, "geometry": { "type": "Point", "coordinates": [ -84.229619809999988, 10.02970696 ] } },
{ "type": "Feature", "properties": { "cat": 82, "pk_uid": 82, "nombre": "CALIFORNIA", "canton": "ALAJUELA" }, "geometry": { "type": "Point", "coordinates": [ -84.223828799999978, 10.01190874 ] } },
{ "type": "Feature", "properties": { "cat": 83, "pk_uid": 83, "nombre": "CAMINANTES", "canton": "ALAJUELA" }, "geometry": { "type": "Point", "coordinates": [ -84.287995019999983, 9.98736477 ] } },
{ "type": "Feature", "properties": { "cat": 84, "pk_uid": 84, "nombre": "CARBONAL", "canton": "ALAJUELA" }, "geometry": { "type": "Point", "coordinates": [ -84.224213499999976, 10.06061709 ] } },
{ "type": "Feature", "properties": { "cat": 85, "pk_uid": 85, "nombre": "CARIBLANCO", "canton": "ALAJUELA" }, "geometry": { "type": "Point", "coordinates": [ -84.2039067, 10.27627093000001 ] } },
{ "type": "Feature", "properties": { "cat": 86, "pk_uid": 86, "nombre": "CINCHONA", "canton": "ALAJUELA" }, "geometry": { "type": "Point", "coordinates": [ -84.190935149999987, 10.23128323 ] } },
{ "type": "Feature", "properties": { "cat": 87, "pk_uid": 87, "nombre": "CINCO ESQUINAS", "canton": "ALAJUELA" }, "geometry": { "type": "Point", "coordinates": [ -84.191820799999988, 10.10414048 ] } },
{ "type": "Feature", "properties": { "cat": 88, "pk_uid": 88, "nombre": "CORAZON DE JESUS", "canton": "ALAJUELA" }, "geometry": { "type": "Point", "coordinates": [ -84.195945909999978, 10.3515467 ] } },
{ "type": "Feature", "properties": { "cat": 89, "pk_uid": 89, "nombre": "DAVID GONZALEZ ALFARO", "canton": "ALAJUELA" }, "geometry": { "type": "Point", "coordinates": [ -84.211014099999986, 10.01365023 ] } },
{ "type": "Feature", "properties": { "cat": 90, "pk_uid": 90, "nombre": "DR.ADOLFO JIMENEZ DE LA G", "canton": "ALAJUELA" }, "geometry": { "type": "Point", "coordinates": [ -84.264814119999983, 10.04819525 ] } },
{ "type": "Feature", "properties": { "cat": 91, "pk_uid": 91, "nombre": "EL ROBLE", "canton": "ALAJUELA" }, "geometry": { "type": "Point", "coordinates": [ 80.660271410000021, -97.969020400000019 ] } },
{ "type": "Feature", "properties": { "cat": 92, "pk_uid": 92, "nombre": "ENRIQUE PINTO FERNANDEZ", "canton": "ALAJUELA" }, "geometry": { "type": "Point", "coordinates": [ -84.237575799999988, 9.9842702 ] } },
{ "type": "Feature", "properties": { "cat": 93, "pk_uid": 93, "nombre": "ENRIQUE RIBA MORELLA", "canton": "ALAJUELA" }, "geometry": { "type": "Point", "coordinates": [ -84.224025869999977, 10.06988331 ] } },
{ "type": "Feature", "properties": { "cat": 94, "pk_uid": 94, "nombre": "ERMIDA BLANCO GONZALEZ", "canton": "ALAJUELA" }, "geometry": { "type": "Point", "coordinates": [ -84.232511799999983, 10.09334494 ] } },
{ "type": "Feature", "properties": { "cat": 95, "pk_uid": 95, "nombre": "FRAIJANES", "canton": "ALAJUELA" }, "geometry": { "type": "Point", "coordinates": [ -84.217582469999982, 10.15473553 ] } },
{ "type": "Feature", "properties": { "cat": 96, "pk_uid": 96, "nombre": "GABRIELA MISTRAL", "canton": "ALAJUELA" }, "geometry": { "type": "Point", "coordinates": [ -84.279678249999989, 9.97467336 ] } },
{ "type": "Feature", "properties": { "cat": 97, "pk_uid": 97, "nombre": "GRAL. JOSE DE SAN MARTIN", "canton": "ALAJUELA" }, "geometry": { "type": "Point", "coordinates": [ -84.266142869999982, 10.02329337 ] } },
{ "type": "Feature", "properties": { "cat": 98, "pk_uid": 98, "nombre": "GUADALUPE", "canton": "ALAJUELA" }, "geometry": { "type": "Point", "coordinates": [ -84.211359, 10.05929673 ] } },
{ "type": "Feature", "properties": { "cat": 99, "pk_uid": 99, "nombre": "HOLANDA", "canton": "ALAJUELA" }, "geometry": { "type": "Point", "coordinates": [ -84.221021499999978, 10.04854229 ] } },
{ "type": "Feature", "properties": { "cat": 100, "pk_uid": 100, "nombre": "HORIZONTES CEDHORI", "canton": "ALAJUELA" }, "geometry": { "type": "Point", "coordinates": [ -84.283953609999983, 9.99272262 ] } },
{ "type": "Feature", "properties": { "cat": 101, "pk_uid": 101, "nombre": "INST. EDUC. SAN GERARDO", "canton": "ALAJUELA" }, "geometry": { "type": "Point", "coordinates": [ -84.241736329999981, 10.03369771 ] } },
{ "type": "Feature", "properties": { "cat": 102, "pk_uid": 102, "nombre": "ITIQUIS", "canton": "ALAJUELA" }, "geometry": { "type": "Point", "coordinates": [ -84.233633779999977, 10.05733473 ] } },
{ "type": "Feature", "properties": { "cat": 103, "pk_uid": 103, "nombre": "JESUS M. VARGAS AGUILAR", "canton": "ALAJUELA" }, "geometry": { "type": "Point", "coordinates": [ -84.289379989999986, 10.03321276 ] } },
{ "type": "Feature", "properties": { "cat": 104, "pk_uid": 104, "nombre": "JOSE MANUEL HERRERA SALAS", "canton": "ALAJUELA" }, "geometry": { "type": "Point", "coordinates": [ -84.19235295999998, 10.09528717 ] } },
{ "type": "Feature", "properties": { "cat": 105, "pk_uid": 105, "nombre": "JUAN SANTAMARIA", "canton": "ALAJUELA" }, "geometry": { "type": "Point", "coordinates": [ -84.315368399999983, 9.95826845 ] } },
{ "type": "Feature", "properties": { "cat": 106, "pk_uid": 106, "nombre": "JULIA FERNANDEZ DE CORTES", "canton": "ALAJUELA" }, "geometry": { "type": "Point", "coordinates": [ -84.343150369999989, 10.00365053 ] } },
{ "type": "Feature", "properties": { "cat": 107, "pk_uid": 107, "nombre": "JULIA FERNANDEZ RODRIGUEZ", "canton": "ALAJUELA" }, "geometry": { "type": "Point", "coordinates": [ -84.237575799999988, 9.9842702 ] } },
{ "type": "Feature", "properties": { "cat": 108, "pk_uid": 108, "nombre": "LA LAGUNA", "canton": "ALAJUELA" }, "geometry": { "type": "Point", "coordinates": [ -84.212896549999982, 10.13423667 ] } },
{ "type": "Feature", "properties": { "cat": 109, "pk_uid": 109, "nombre": "LA PRADERA", "canton": "ALAJUELA" }, "geometry": { "type": "Point", "coordinates": [ -84.279678249999989, 9.97467336 ] } },
{ "type": "Feature", "properties": { "cat": 110, "pk_uid": 110, "nombre": "LA TRINIDAD", "canton": "ALAJUELA" }, "geometry": { "type": "Point", "coordinates": [ -84.284854649999986, 10.01217257 ] } },
{ "type": "Feature", "properties": { "cat": 111, "pk_uid": 111, "nombre": "LAB. TECNICO CIENTIFICO", "canton": "ALAJUELA" }, "geometry": { "type": "Point", "coordinates": [ -84.343150369999989, 10.00365053 ] } },
{ "type": "Feature", "properties": { "cat": 112, "pk_uid": 112, "nombre": "LAGOS DEL COYOL", "canton": "ALAJUELA" }, "geometry": { "type": "Point", "coordinates": [ -84.330790379999982, 9.99824072 ] } },
{ "type": "Feature", "properties": { "cat": 113, "pk_uid": 113, "nombre": "LEON CORTES CASTRO", "canton": "ALAJUELA" }, "geometry": { "type": "Point", "coordinates": [ -84.19235295999998, 10.09528717 ] } },
{ "type": "Feature", "properties": { "cat": 114, "pk_uid": 114, "nombre": "LEON CORTES CASTRO", "canton": "ALAJUELA" }, "geometry": { "type": "Point", "coordinates": [ -84.267557949999983, 9.98297988 ] } },
{ "type": "Feature", "properties": { "cat": 115, "pk_uid": 115, "nombre": "LUIS DEMETRIO TINOCO", "canton": "ALAJUELA" }, "geometry": { "type": "Point", "coordinates": [ -84.20490587, 10.32260028 ] } },
{ "type": "Feature", "properties": { "cat": 116, "pk_uid": 116, "nombre": "LUIS F. GONZALEZ FLORES", "canton": "ALAJUELA" }, "geometry": { "type": "Point", "coordinates": [ -84.239502699999989, 10.08459348 ] } },
{ "type": "Feature", "properties": { "cat": 117, "pk_uid": 117, "nombre": "LUIS SIBAJA GARCIA", "canton": "ALAJUELA" }, "geometry": { "type": "Point", "coordinates": [ -84.237629479999981, 10.0587841 ] } },
{ "type": "Feature", "properties": { "cat": 118, "pk_uid": 118, "nombre": "MANUEL FCO. CARRILLO S.", "canton": "ALAJUELA" }, "geometry": { "type": "Point", "coordinates": [ -84.227575489999978, 10.04127162 ] } },
{ "type": "Feature", "properties": { "cat": 119, "pk_uid": 119, "nombre": "MANUELA SANTAMARIA", "canton": "ALAJUELA" }, "geometry": { "type": "Point", "coordinates": [ -84.211138829999982, 10.0340234 ] } },
{ "type": "Feature", "properties": { "cat": 120, "pk_uid": 120, "nombre": "MARIA VARGAS RODRIGUEZ", "canton": "ALAJUELA" }, "geometry": { "type": "Point", "coordinates": [ -84.283953609999983, 9.99272262 ] } },
{ "type": "Feature", "properties": { "cat": 121, "pk_uid": 121, "nombre": "MARIANA MADRIGAL DE LA O.", "canton": "ALAJUELA" }, "geometry": { "type": "Point", "coordinates": [ -84.256460939999982, 10.04339951 ] } },
{ "type": "Feature", "properties": { "cat": 122, "pk_uid": 122, "nombre": "MARISTA", "canton": "ALAJUELA" }, "geometry": { "type": "Point", "coordinates": [ -84.229619809999988, 10.02970696 ] } },
{ "type": "Feature", "properties": { "cat": 123, "pk_uid": 123, "nombre": "MAURILIO SOTO ALFARO", "canton": "ALAJUELA" }, "geometry": { "type": "Point", "coordinates": [ -84.250707899999981, 10.01788769 ] } },
{ "type": "Feature", "properties": { "cat": 124, "pk_uid": 124, "nombre": "MIGUEL HIDALGO BASTOS", "canton": "ALAJUELA" }, "geometry": { "type": "Point", "coordinates": [ -84.223828799999978, 10.01190874 ] } },
{ "type": "Feature", "properties": { "cat": 125, "pk_uid": 125, "nombre": "MIGUEL OBREGON LIZANO", "canton": "ALAJUELA" }, "geometry": { "type": "Point", "coordinates": [ -84.237153189999987, 10.02785461 ] } },
{ "type": "Feature", "properties": { "cat": 126, "pk_uid": 126, "nombre": "MIXTA DE SIQUIARES", "canton": "ALAJUELA" }, "geometry": { "type": "Point", "coordinates": [ -84.334247279999985, 9.97527341 ] } },
{ "type": "Feature", "properties": { "cat": 127, "pk_uid": 127, "nombre": "NICOLAS CHACON VARGAS", "canton": "ALAJUELA" }, "geometry": { "type": "Point", "coordinates": [ -84.217384539999983, 10.17389022 ] } },
{ "type": "Feature", "properties": { "cat": 128, "pk_uid": 128, "nombre": "ONCE DE ABRIL", "canton": "ALAJUELA" }, "geometry": { "type": "Point", "coordinates": [ -84.287113829999981, 9.95879726 ] } },
{ "type": "Feature", "properties": { "cat": 129, "pk_uid": 129, "nombre": "PACTO DEL JOCOTE", "canton": "ALAJUELA" }, "geometry": { "type": "Point", "coordinates": [ -84.266142869999982, 10.02329337 ] } },
{ "type": "Feature", "properties": { "cat": 130, "pk_uid": 130, "nombre": "POASITO", "canton": "ALAJUELA" }, "geometry": { "type": "Point", "coordinates": [ -84.217384539999983, 10.17389022 ] } },
{ "type": "Feature", "properties": { "cat": 131, "pk_uid": 131, "nombre": "PUEBLO NUEVO", "canton": "ALAJUELA" }, "geometry": { "type": "Point", "coordinates": [ -84.241736329999981, 10.03369771 ] } },
{ "type": "Feature", "properties": { "cat": 132, "pk_uid": 132, "nombre": "QUEBRADAS", "canton": "ALAJUELA" }, "geometry": { "type": "Point", "coordinates": [ -84.269918149999981, 10.05275155 ] } },
{ "type": "Feature", "properties": { "cat": 133, "pk_uid": 133, "nombre": "RAFAEL A.LUNA HERRERA", "canton": "ALAJUELA" }, "geometry": { "type": "Point", "coordinates": [ -84.243178589999985, 10.07761549 ] } },
{ "type": "Feature", "properties": { "cat": 134, "pk_uid": 134, "nombre": "REPUBLICA DE GUATEMALA", "canton": "ALAJUELA" }, "geometry": { "type": "Point", "coordinates": [ -84.227575489999978, 10.04127162 ] } },
{ "type": "Feature", "properties": { "cat": 135, "pk_uid": 135, "nombre": "RICARDO FERNANDEZ GUARDIA", "canton": "ALAJUELA" }, "geometry": { "type": "Point", "coordinates": [ -84.343150369999989, 10.00365053 ] } },
{ "type": "Feature", "properties": { "cat": 136, "pk_uid": 136, "nombre": "RINCON CHIQUITO", "canton": "ALAJUELA" }, "geometry": { "type": "Point", "coordinates": [ -84.297847019999978, 9.97293821 ] } },
{ "type": "Feature", "properties": { "cat": 137, "pk_uid": 137, "nombre": "RINCON DE CACAO", "canton": "ALAJUELA" }, "geometry": { "type": "Point", "coordinates": [ -84.325766519999988, 10.01895881 ] } },
{ "type": "Feature", "properties": { "cat": 138, "pk_uid": 138, "nombre": "RINCON DE HERRERA", "canton": "ALAJUELA" }, "geometry": { "type": "Point", "coordinates": [ -84.297847019999978, 9.97293821 ] } },
{ "type": "Feature", "properties": { "cat": 139, "pk_uid": 139, "nombre": "SAINT JOHN VIANNEY", "canton": "ALAJUELA" }, "geometry": { "type": "Point", "coordinates": [ -84.279678249999989, 9.97467336 ] } },
{ "type": "Feature", "properties": { "cat": 140, "pk_uid": 140, "nombre": "SAINT PAUL PRIMARY SCHOOL", "canton": "ALAJUELA" }, "geometry": { "type": "Point", "coordinates": [ -84.2268018, 9.99471716 ] } },
{ "type": "Feature", "properties": { "cat": 141, "pk_uid": 141, "nombre": "SAN AGUSTIN", "canton": "ALAJUELA" }, "geometry": { "type": "Point", "coordinates": [ -84.284854649999986, 10.01217257 ] } },
{ "type": "Feature", "properties": { "cat": 142, "pk_uid": 142, "nombre": "SAN ANTONIO", "canton": "ALAJUELA" }, "geometry": { "type": "Point", "coordinates": [ -84.296395719999978, 9.98590488 ] } },
{ "type": "Feature", "properties": { "cat": 143, "pk_uid": 143, "nombre": "SAN DIEGO", "canton": "ALAJUELA" }, "geometry": { "type": "Point", "coordinates": [ -84.211138829999982, 10.0340234 ] } },
{ "type": "Feature", "properties": { "cat": 144, "pk_uid": 144, "nombre": "SAN FERNANDO", "canton": "ALAJUELA" }, "geometry": { "type": "Point", "coordinates": [ -84.211138829999982, 10.0340234 ] } },
{ "type": "Feature", "properties": { "cat": 145, "pk_uid": 145, "nombre": "SAN MARCOS", "canton": "ALAJUELA" }, "geometry": { "type": "Point", "coordinates": [ -84.211138829999982, 10.0340234 ] } },
{ "type": "Feature", "properties": { "cat": 146, "pk_uid": 146, "nombre": "SAN MIGUEL", "canton": "ALAJUELA" }, "geometry": { "type": "Point", "coordinates": [ -84.334247279999985, 9.97527341 ] } },
{ "type": "Feature", "properties": { "cat": 147, "pk_uid": 147, "nombre": "SANTA FE", "canton": "ALAJUELA" }, "geometry": { "type": "Point", "coordinates": [ -84.283953609999983, 9.99272262 ] } },
{ "type": "Feature", "properties": { "cat": 148, "pk_uid": 148, "nombre": "SANTA ISABEL", "canton": "ALAJUELA" }, "geometry": { "type": "Point", "coordinates": [ -84.227575489999978, 10.04127162 ] } },
{ "type": "Feature", "properties": { "cat": 149, "pk_uid": 149, "nombre": "SANTA RITA", "canton": "ALAJUELA" }, "geometry": { "type": "Point", "coordinates": [ -84.266142869999982, 10.02329337 ] } },
{ "type": "Feature", "properties": { "cat": 150, "pk_uid": 150, "nombre": "SANTA TERESA", "canton": "ALAJUELA" }, "geometry": { "type": "Point", "coordinates": [ -84.266142869999982, 10.02329337 ] } },
{ "type": "Feature", "properties": { "cat": 151, "pk_uid": 151, "nombre": "SILVIA MONTERO ZAMORA", "canton": "ALAJUELA" }, "geometry": { "type": "Point", "coordinates": [ -84.215153599999979, 10.11627696 ] } },
{ "type": "Feature", "properties": { "cat": 152, "pk_uid": 152, "nombre": "TECNOLOGIA MODERNA", "canton": "ALAJUELA" }, "geometry": { "type": "Point", "coordinates": [ -84.266142869999982, 10.02329337 ] } },
{ "type": "Feature", "properties": { "cat": 153, "pk_uid": 153, "nombre": "TIMOLEON MORERA SOTO", "canton": "ALAJUELA" }, "geometry": { "type": "Point", "coordinates": [ -84.227361029999983, 10.09163756 ] } },
{ "type": "Feature", "properties": { "cat": 154, "pk_uid": 154, "nombre": "TUETAL SUR", "canton": "ALAJUELA" }, "geometry": { "type": "Point", "coordinates": [ -84.250639869999986, 10.0401631 ] } },
{ "type": "Feature", "properties": { "cat": 155, "pk_uid": 155, "nombre": "TURRUCARES", "canton": "ALAJUELA" }, "geometry": { "type": "Point", "coordinates": [ -84.343392049999977, 9.97106439 ] } },
{ "type": "Feature", "properties": { "cat": 156, "pk_uid": 156, "nombre": "UJARRAS", "canton": "ALAJUELA" }, "geometry": { "type": "Point", "coordinates": [ -84.207346569999984, 10.28773575 ] } },
{ "type": "Feature", "properties": { "cat": 157, "pk_uid": 157, "nombre": "UNION DE ROSALES", "canton": "ALAJUELA" }, "geometry": { "type": "Point", "coordinates": [ -84.211138829999982, 10.0340234 ] } },
{ "type": "Feature", "properties": { "cat": 158, "pk_uid": 158, "nombre": "VILLA AZUL", "canton": "ALAJUELA" }, "geometry": { "type": "Point", "coordinates": [ -84.237153189999987, 10.02785461 ] } },
{ "type": "Feature", "properties": { "cat": 159, "pk_uid": 159, "nombre": "VILLA BONITA", "canton": "ALAJUELA" }, "geometry": { "type": "Point", "coordinates": [ -84.283953609999983, 9.99272262 ] } },
{ "type": "Feature", "properties": { "cat": 160, "pk_uid": 160, "nombre": "YURE", "canton": "ALAJUELA" }, "geometry": { "type": "Point", "coordinates": [ -84.237153189999987, 10.02785461 ] } },
{ "type": "Feature", "properties": { "cat": 161, "pk_uid": 161, "nombre": "AGUSTIN SEGURA", "canton": "DESAMPARADOS" }, "geometry": { "type": "Point", "coordinates": [ -84.082121499999985, 9.84289656 ] } },
{ "type": "Feature", "properties": { "cat": 162, "pk_uid": 162, "nombre": "ARUBA", "canton": "DESAMPARADOS" }, "geometry": { "type": "Point", "coordinates": [ -84.102833479999987, 9.89062894 ] } },
{ "type": "Feature", "properties": { "cat": 163, "pk_uid": 163, "nombre": "ASAMBLEAS DE DIOS", "canton": "DESAMPARADOS" }, "geometry": { "type": "Point", "coordinates": [ -84.053330309999978, 9.89452182 ] } },
{ "type": "Feature", "properties": { "cat": 164, "pk_uid": 164, "nombre": "BENDITO JESUS", "canton": "DESAMPARADOS" }, "geometry": { "type": "Point", "coordinates": [ -84.065517449999987, 9.91055331 ] } },
{ "type": "Feature", "properties": { "cat": 165, "pk_uid": 165, "nombre": "BILINGUE LLAMA DEL BOSQUE", "canton": "DESAMPARADOS" }, "geometry": { "type": "Point", "coordinates": [ -84.082121499999985, 9.84289656 ] } },
{ "type": "Feature", "properties": { "cat": 166, "pk_uid": 166, "nombre": "BILINGUE VIRGEN DE FATIMA", "canton": "DESAMPARADOS" }, "geometry": { "type": "Point", "coordinates": [ -84.102498649999987, 9.9055999 ] } },
{ "type": "Feature", "properties": { "cat": 167, "pk_uid": 167, "nombre": "CECILIA ORLICH FIGUERES", "canton": "DESAMPARADOS" }, "geometry": { "type": "Point", "coordinates": [ -84.019835059999977, 9.76068941 ] } },
{ "type": "Feature", "properties": { "cat": 168, "pk_uid": 168, "nombre": "CECILIO PIEDRA GUTIERREZ", "canton": "DESAMPARADOS" }, "geometry": { "type": "Point", "coordinates": [ -84.076326179999981, 9.76384961 ] } },
{ "type": "Feature", "properties": { "cat": 169, "pk_uid": 169, "nombre": "CHIROGRES", "canton": "DESAMPARADOS" }, "geometry": { "type": "Point", "coordinates": [ -84.107343079999978, 9.81986746 ] } },
{ "type": "Feature", "properties": { "cat": 170, "pk_uid": 170, "nombre": "CIUDADELA FATIMA", "canton": "DESAMPARADOS" }, "geometry": { "type": "Point", "coordinates": [ -84.084836299999978, 9.90961022 ] } },
{ "type": "Feature", "properties": { "cat": 171, "pk_uid": 171, "nombre": "CRISTIANA TORREMOLINOS", "canton": "DESAMPARADOS" }, "geometry": { "type": "Point", "coordinates": [ -84.091766209999989, 9.90190255 ] } },
{ "type": "Feature", "properties": { "cat": 172, "pk_uid": 172, "nombre": "DOS CERCAS", "canton": "DESAMPARADOS" }, "geometry": { "type": "Point", "coordinates": [ -84.084836299999978, 9.90961022 ] } },
{ "type": "Feature", "properties": { "cat": 173, "pk_uid": 173, "nombre": "EL EMPALME", "canton": "DESAMPARADOS" }, "geometry": { "type": "Point", "coordinates": [ -84.019835059999977, 9.76068941 ] } },
{ "type": "Feature", "properties": { "cat": 174, "pk_uid": 174, "nombre": "EL MANZANO", "canton": "DESAMPARADOS" }, "geometry": { "type": "Point", "coordinates": [ -84.082121499999985, 9.84289656 ] } },
{ "type": "Feature", "properties": { "cat": 175, "pk_uid": 175, "nombre": "EL ROSARIO", "canton": "DESAMPARADOS" }, "geometry": { "type": "Point", "coordinates": [ -84.101085199999986, 9.82967301 ] } },
{ "type": "Feature", "properties": { "cat": 176, "pk_uid": 176, "nombre": "EL YAQUI", "canton": "DESAMPARADOS" }, "geometry": { "type": "Point", "coordinates": [ -84.08178479999998, 9.90269137 ] } },
{ "type": "Feature", "properties": { "cat": 177, "pk_uid": 177, "nombre": "ELIAS JIMENEZ CASTRO", "canton": "DESAMPARADOS" }, "geometry": { "type": "Point", "coordinates": [ -84.102498649999987, 9.9055999 ] } },
{ "type": "Feature", "properties": { "cat": 178, "pk_uid": 178, "nombre": "ENTRADA LA LUCHA", "canton": "DESAMPARADOS" }, "geometry": { "type": "Point", "coordinates": [ -84.019835059999977, 9.76068941 ] } },
{ "type": "Feature", "properties": { "cat": 179, "pk_uid": 179, "nombre": "FINCA CAPRI", "canton": "DESAMPARADOS" }, "geometry": { "type": "Point", "coordinates": [ -84.082121499999985, 9.84289656 ] } },
{ "type": "Feature", "properties": { "cat": 180, "pk_uid": 180, "nombre": "GUATUSO", "canton": "DESAMPARADOS" }, "geometry": { "type": "Point", "coordinates": [ -84.055410939999987, 9.88200588 ] } },
{ "type": "Feature", "properties": { "cat": 181, "pk_uid": 181, "nombre": "HIGUITO", "canton": "DESAMPARADOS" }, "geometry": { "type": "Point", "coordinates": [ -84.082121499999985, 9.84289656 ] } },
{ "type": "Feature", "properties": { "cat": 182, "pk_uid": 182, "nombre": "INTEGRAL BIL. SATEBLOK", "canton": "DESAMPARADOS" }, "geometry": { "type": "Point", "coordinates": [ -84.102498649999987, 9.9055999 ] } },
{ "type": "Feature", "properties": { "cat": 183, "pk_uid": 183, "nombre": "JOAQUIN GARCIA MONGE", "canton": "DESAMPARADOS" }, "geometry": { "type": "Point", "coordinates": [ -84.091766209999989, 9.90190255 ] } },
{ "type": "Feature", "properties": { "cat": 184, "pk_uid": 184, "nombre": "JOSE MA. ZELEDON BRENES", "canton": "DESAMPARADOS" }, "geometry": { "type": "Point", "coordinates": [ -84.082121499999985, 9.84289656 ] } },
{ "type": "Feature", "properties": { "cat": 185, "pk_uid": 185, "nombre": "JOSE T. MORA VALVERDE", "canton": "DESAMPARADOS" }, "geometry": { "type": "Point", "coordinates": [ -84.091766209999989, 9.90190255 ] } },
{ "type": "Feature", "properties": { "cat": 186, "pk_uid": 186, "nombre": "JUAN MONGE GUILLEN", "canton": "DESAMPARADOS" }, "geometry": { "type": "Point", "coordinates": [ -84.053330309999978, 9.89452182 ] } },
{ "type": "Feature", "properties": { "cat": 187, "pk_uid": 187, "nombre": "LA FILA", "canton": "DESAMPARADOS" }, "geometry": { "type": "Point", "coordinates": [ -84.092718229999988, 9.83540281 ] } },
{ "type": "Feature", "properties": { "cat": 188, "pk_uid": 188, "nombre": "LA GUARIA", "canton": "DESAMPARADOS" }, "geometry": { "type": "Point", "coordinates": [ -84.019835059999977, 9.76068941 ] } },
{ "type": "Feature", "properties": { "cat": 189, "pk_uid": 189, "nombre": "LA JOYA", "canton": "DESAMPARADOS" }, "geometry": { "type": "Point", "coordinates": [ -84.092718229999988, 9.83540281 ] } },
{ "type": "Feature", "properties": { "cat": 190, "pk_uid": 190, "nombre": "LA PACAYA", "canton": "DESAMPARADOS" }, "geometry": { "type": "Point", "coordinates": [ -84.082121499999985, 9.84289656 ] } },
{ "type": "Feature", "properties": { "cat": 191, "pk_uid": 191, "nombre": "LA TRINIDAD", "canton": "DESAMPARADOS" }, "geometry": { "type": "Point", "coordinates": [ -84.092718229999988, 9.83540281 ] } },
{ "type": "Feature", "properties": { "cat": 192, "pk_uid": 192, "nombre": "LA VALENCIA", "canton": "DESAMPARADOS" }, "geometry": { "type": "Point", "coordinates": [ -84.102498649999987, 9.9055999 ] } },
{ "type": "Feature", "properties": { "cat": 193, "pk_uid": 193, "nombre": "LAS GRAVILIAS", "canton": "DESAMPARADOS" }, "geometry": { "type": "Point", "coordinates": [ -84.08178479999998, 9.90269137 ] } },
{ "type": "Feature", "properties": { "cat": 194, "pk_uid": 194, "nombre": "LAS LETRAS", "canton": "DESAMPARADOS" }, "geometry": { "type": "Point", "coordinates": [ -84.082121499999985, 9.84289656 ] } },
{ "type": "Feature", "properties": { "cat": 195, "pk_uid": 195, "nombre": "LEANDRO FONSECA NARANJO", "canton": "DESAMPARADOS" }, "geometry": { "type": "Point", "coordinates": [ -84.098290939999984, 9.81739788 ] } },
{ "type": "Feature", "properties": { "cat": 196, "pk_uid": 196, "nombre": "LLANO BONITO", "canton": "DESAMPARADOS" }, "geometry": { "type": "Point", "coordinates": [ -84.092718229999988, 9.83540281 ] } },
{ "type": "Feature", "properties": { "cat": 197, "pk_uid": 197, "nombre": "LOS GUIDO", "canton": "DESAMPARADOS" }, "geometry": { "type": "Point", "coordinates": [ -84.08178479999998, 9.90269137 ] } },
{ "type": "Feature", "properties": { "cat": 198, "pk_uid": 198, "nombre": "MADELENE MEDFORD", "canton": "DESAMPARADOS" }, "geometry": { "type": "Point", "coordinates": [ -84.08178479999998, 9.90269137 ] } },
{ "type": "Feature", "properties": { "cat": 199, "pk_uid": 199, "nombre": "MARTIN MORA ROJAS", "canton": "DESAMPARADOS" }, "geometry": { "type": "Point", "coordinates": [ -84.101899909999986, 9.76860221 ] } },
{ "type": "Feature", "properties": { "cat": 200, "pk_uid": 200, "nombre": "MISIONERA CATOLICA", "canton": "DESAMPARADOS" }, "geometry": { "type": "Point", "coordinates": [ -84.065517449999987, 9.91055331 ] } },
{ "type": "Feature", "properties": { "cat": 201, "pk_uid": 201, "nombre": "MIXTA SAN CRISTOBAL SUR", "canton": "DESAMPARADOS" }, "geometry": { "type": "Point", "coordinates": [ -84.019835059999977, 9.76068941 ] } },
{ "type": "Feature", "properties": { "cat": 202, "pk_uid": 202, "nombre": "RAYO DE LUZ DEL SUR", "canton": "DESAMPARADOS" }, "geometry": { "type": "Point", "coordinates": [ -84.102833479999987, 9.89062894 ] } },
{ "type": "Feature", "properties": { "cat": 203, "pk_uid": 203, "nombre": "REPUBLICA DE HONDURAS", "canton": "DESAMPARADOS" }, "geometry": { "type": "Point", "coordinates": [ -84.082121499999985, 9.84289656 ] } },
{ "type": "Feature", "properties": { "cat": 204, "pk_uid": 204, "nombre": "REPUBLICA DE PANAMA", "canton": "DESAMPARADOS" }, "geometry": { "type": "Point", "coordinates": [ -84.065517449999987, 9.91055331 ] } },
{ "type": "Feature", "properties": { "cat": 205, "pk_uid": 205, "nombre": "REPUBLICA FEDERAL ALEMANA", "canton": "DESAMPARADOS" }, "geometry": { "type": "Point", "coordinates": [ -84.042072849999983, 9.88819191 ] } },
{ "type": "Feature", "properties": { "cat": 206, "pk_uid": 206, "nombre": "REV. FRANCISCO SCHMITZ", "canton": "DESAMPARADOS" }, "geometry": { "type": "Point", "coordinates": [ -84.08178479999998, 9.90269137 ] } },
{ "type": "Feature", "properties": { "cat": 207, "pk_uid": 207, "nombre": "RINCON DE MORALES", "canton": "DESAMPARADOS" }, "geometry": { "type": "Point", "coordinates": [ -84.101899909999986, 9.76860221 ] } },
{ "type": "Feature", "properties": { "cat": 208, "pk_uid": 208, "nombre": "SAN CRISTOBAL NORTE", "canton": "DESAMPARADOS" }, "geometry": { "type": "Point", "coordinates": [ -84.019835059999977, 9.76068941 ] } },
{ "type": "Feature", "properties": { "cat": 209, "pk_uid": 209, "nombre": "SAN JERONIMO", "canton": "DESAMPARADOS" }, "geometry": { "type": "Point", "coordinates": [ -84.091766209999989, 9.90190255 ] } },
{ "type": "Feature", "properties": { "cat": 210, "pk_uid": 210, "nombre": "SAN MIGUEL ARCANGEL", "canton": "DESAMPARADOS" }, "geometry": { "type": "Point", "coordinates": [ -84.082121499999985, 9.84289656 ] } },
{ "type": "Feature", "properties": { "cat": 211, "pk_uid": 211, "nombre": "SAN RAFAEL", "canton": "DESAMPARADOS" }, "geometry": { "type": "Point", "coordinates": [ -84.102498649999987, 9.9055999 ] } },
{ "type": "Feature", "properties": { "cat": 212, "pk_uid": 212, "nombre": "SECTOR SIETE", "canton": "DESAMPARADOS" }, "geometry": { "type": "Point", "coordinates": [ -84.082121499999985, 9.84289656 ] } },
{ "type": "Feature", "properties": { "cat": 213, "pk_uid": 213, "nombre": "SOR MARIA ROMERO", "canton": "DESAMPARADOS" }, "geometry": { "type": "Point", "coordinates": [ -84.082121499999985, 9.84289656 ] } },
{ "type": "Feature", "properties": { "cat": 214, "pk_uid": 214, "nombre": "SOTERO GONZALEZ BARQUERO", "canton": "DESAMPARADOS" }, "geometry": { "type": "Point", "coordinates": [ -84.102833479999987, 9.89062894 ] } },
{ "type": "Feature", "properties": { "cat": 215, "pk_uid": 215, "nombre": "VIRGEN MARIA DEL MILAGRO", "canton": "DESAMPARADOS" }, "geometry": { "type": "Point", "coordinates": [ -84.091766209999989, 9.90190255 ] } },
{ "type": "Feature", "properties": { "cat": 216, "pk_uid": 216, "nombre": "ABELARDO ROJAS QUESADA", "canton": "SAN CARLOS" }, "geometry": { "type": "Point", "coordinates": [ -84.410975899999983, 10.42754221 ] } },
{ "type": "Feature", "properties": { "cat": 217, "pk_uid": 217, "nombre": "ACAPULCO", "canton": "SAN CARLOS" }, "geometry": { "type": "Point", "coordinates": [ -84.577422349999978, 10.66836003 ] } },
{ "type": "Feature", "properties": { "cat": 218, "pk_uid": 218, "nombre": "AGUA AZUL", "canton": "SAN CARLOS" }, "geometry": { "type": "Point", "coordinates": [ -84.643686299999985, 10.50091934 ] } },
{ "type": "Feature", "properties": { "cat": 219, "pk_uid": 219, "nombre": "ALTAMIRA", "canton": "SAN CARLOS" }, "geometry": { "type": "Point", "coordinates": [ -84.358984329999984, 10.47621483 ] } },
{ "type": "Feature", "properties": { "cat": 220, "pk_uid": 220, "nombre": "ANTONIO JOSE DE SUCRE", "canton": "SAN CARLOS" }, "geometry": { "type": "Point", "coordinates": [ -84.45951664, 10.29133885 ] } },
{ "type": "Feature", "properties": { "cat": 221, "pk_uid": 221, "nombre": "ARISTIDES ROMAIN", "canton": "SAN CARLOS" }, "geometry": { "type": "Point", "coordinates": [ -84.358984329999984, 10.47621483 ] } },
{ "type": "Feature", "properties": { "cat": 222, "pk_uid": 222, "nombre": "BAHAMAS", "canton": "SAN CARLOS" }, "geometry": { "type": "Point", "coordinates": [ -84.224090419999982, 10.73520469 ] } },
{ "type": "Feature", "properties": { "cat": 223, "pk_uid": 223, "nombre": "BARRIO LOS ANGELES", "canton": "SAN CARLOS" }, "geometry": { "type": "Point", "coordinates": [ -84.443472819999982, 10.33795653 ] } },
{ "type": "Feature", "properties": { "cat": 224, "pk_uid": 224, "nombre": "BELLA VISTA", "canton": "SAN CARLOS" }, "geometry": { "type": "Point", "coordinates": [ -84.407741529999981, 10.67822627 ] } },
{ "type": "Feature", "properties": { "cat": 225, "pk_uid": 225, "nombre": "BETANIA", "canton": "SAN CARLOS" }, "geometry": { "type": "Point", "coordinates": [ -84.407741529999981, 10.67822627 ] } },
{ "type": "Feature", "properties": { "cat": 226, "pk_uid": 226, "nombre": "BOCA DEL RIO SAN CARLOS", "canton": "SAN CARLOS" }, "geometry": { "type": "Point", "coordinates": [ -84.221722569999983, 10.78549063 ] } },
{ "type": "Feature", "properties": { "cat": 227, "pk_uid": 227, "nombre": "BOCA TAPADA", "canton": "SAN CARLOS" }, "geometry": { "type": "Point", "coordinates": [ -84.256528079999981, 10.67904233 ] } },
{ "type": "Feature", "properties": { "cat": 228, "pk_uid": 228, "nombre": "BONANZA", "canton": "SAN CARLOS" }, "geometry": { "type": "Point", "coordinates": [ -84.545180959999982, 10.33106205 ] } },
{ "type": "Feature", "properties": { "cat": 229, "pk_uid": 229, "nombre": "BUENA VISTA", "canton": "SAN CARLOS" }, "geometry": { "type": "Point", "coordinates": [ -84.502066179999986, 10.30781455 ] } },
{ "type": "Feature", "properties": { "cat": 230, "pk_uid": 230, "nombre": "BUENOS AIRES", "canton": "SAN CARLOS" }, "geometry": { "type": "Point", "coordinates": [ -84.535535199999984, 10.57978184000001 ] } },
{ "type": "Feature", "properties": { "cat": 231, "pk_uid": 231, "nombre": "BUENOS AIRES", "canton": "SAN CARLOS" }, "geometry": { "type": "Point", "coordinates": [ -84.330531219999983, 10.38763188 ] } },
{ "type": "Feature", "properties": { "cat": 232, "pk_uid": 232, "nombre": "CAIMITOS", "canton": "SAN CARLOS" }, "geometry": { "type": "Point", "coordinates": [ -84.55479124999998, 10.37480204 ] } },
{ "type": "Feature", "properties": { "cat": 233, "pk_uid": 233, "nombre": "CALLE DAMAS", "canton": "SAN CARLOS" }, "geometry": { "type": "Point", "coordinates": [ -84.358984329999984, 10.47621483 ] } },
{ "type": "Feature", "properties": { "cat": 234, "pk_uid": 234, "nombre": "CARLOS MAROTO QUIROS", "canton": "SAN CARLOS" }, "geometry": { "type": "Point", "coordinates": [ -84.507931659999983, 10.36976279000001 ] } },
{ "type": "Feature", "properties": { "cat": 235, "pk_uid": 235, "nombre": "CARRIZAL", "canton": "SAN CARLOS" }, "geometry": { "type": "Point", "coordinates": [ -84.509512499999985, 10.77628967 ] } },
{ "type": "Feature", "properties": { "cat": 236, "pk_uid": 236, "nombre": "CASTELMARE", "canton": "SAN CARLOS" }, "geometry": { "type": "Point", "coordinates": [ -84.319959749999981, 10.62114561 ] } },
{ "type": "Feature", "properties": { "cat": 237, "pk_uid": 237, "nombre": "CEDRAL", "canton": "SAN CARLOS" }, "geometry": { "type": "Point", "coordinates": [ -84.466409219999989, 10.37334308 ] } },
{ "type": "Feature", "properties": { "cat": 238, "pk_uid": 238, "nombre": "CERRO BLANCO", "canton": "SAN CARLOS" }, "geometry": { "type": "Point", "coordinates": [ -84.285622599999982, 10.47809414 ] } },
{ "type": "Feature", "properties": { "cat": 239, "pk_uid": 239, "nombre": "CERRO CORTES", "canton": "SAN CARLOS" }, "geometry": { "type": "Point", "coordinates": [ -84.358984329999984, 10.47621483 ] } },
{ "type": "Feature", "properties": { "cat": 240, "pk_uid": 240, "nombre": "CHAMBACU", "canton": "SAN CARLOS" }, "geometry": { "type": "Point", "coordinates": [ -84.694496459999982, 10.61791764 ] } },
{ "type": "Feature", "properties": { "cat": 241, "pk_uid": 241, "nombre": "CHAPARRON", "canton": "SAN CARLOS" }, "geometry": { "type": "Point", "coordinates": [ -84.225015789999986, 10.56403639 ] } },
{ "type": "Feature", "properties": { "cat": 242, "pk_uid": 242, "nombre": "CHORRERAS", "canton": "SAN CARLOS" }, "geometry": { "type": "Point", "coordinates": [ -84.35262505999998, 10.89657262 ] } },
{ "type": "Feature", "properties": { "cat": 243, "pk_uid": 243, "nombre": "COCOBOLO", "canton": "SAN CARLOS" }, "geometry": { "type": "Point", "coordinates": [ -84.45743346, 10.70525258 ] } },
{ "type": "Feature", "properties": { "cat": 244, "pk_uid": 244, "nombre": "COLONIA PARIS", "canton": "SAN CARLOS" }, "geometry": { "type": "Point", "coordinates": [ -84.694496459999982, 10.61791764 ] } },
{ "type": "Feature", "properties": { "cat": 245, "pk_uid": 245, "nombre": "CONCEPCION", "canton": "SAN CARLOS" }, "geometry": { "type": "Point", "coordinates": [ -84.439996879999981, 10.31499915 ] } },
{ "type": "Feature", "properties": { "cat": 246, "pk_uid": 246, "nombre": "CONCEPCION", "canton": "SAN CARLOS" }, "geometry": { "type": "Point", "coordinates": [ -84.413081029999987, 10.41016782 ] } },
{ "type": "Feature", "properties": { "cat": 247, "pk_uid": 247, "nombre": "COOPE ISABEL", "canton": "SAN CARLOS" }, "geometry": { "type": "Point", "coordinates": [ -84.298495279999983, 10.45953163 ] } },
{ "type": "Feature", "properties": { "cat": 248, "pk_uid": 248, "nombre": "COOPE SAN JUAN", "canton": "SAN CARLOS" }, "geometry": { "type": "Point", "coordinates": [ -84.358984329999984, 10.47621483 ] } },
{ "type": "Feature", "properties": { "cat": 249, "pk_uid": 249, "nombre": "COOPEVEGA", "canton": "SAN CARLOS" }, "geometry": { "type": "Point", "coordinates": [ -84.410530929999979, 10.73125131 ] } },
{ "type": "Feature", "properties": { "cat": 250, "pk_uid": 250, "nombre": "CRUCITAS", "canton": "SAN CARLOS" }, "geometry": { "type": "Point", "coordinates": [ -84.41973068999998, 10.66389605 ] } },
{ "type": "Feature", "properties": { "cat": 251, "pk_uid": 251, "nombre": "CUESTILLAS", "canton": "SAN CARLOS" }, "geometry": { "type": "Point", "coordinates": [ -84.55479124999998, 10.37480204 ] } },
{ "type": "Feature", "properties": { "cat": 252, "pk_uid": 252, "nombre": "CURIRE", "canton": "SAN CARLOS" }, "geometry": { "type": "Point", "coordinates": [ -84.371597899999983, 10.82263852 ] } },
{ "type": "Feature", "properties": { "cat": 253, "pk_uid": 253, "nombre": "DULCE NOMBRE", "canton": "SAN CARLOS" }, "geometry": { "type": "Point", "coordinates": [ -84.464622349999985, 10.39151037 ] } },
{ "type": "Feature", "properties": { "cat": 254, "pk_uid": 254, "nombre": "EL ACHIOTE", "canton": "SAN CARLOS" }, "geometry": { "type": "Point", "coordinates": [ -84.535535199999984, 10.57978184000001 ] } },
{ "type": "Feature", "properties": { "cat": 255, "pk_uid": 255, "nombre": "EL BURIO", "canton": "SAN CARLOS" }, "geometry": { "type": "Point", "coordinates": [ -84.745822989999979, 10.59818436 ] } },
{ "type": "Feature", "properties": { "cat": 256, "pk_uid": 256, "nombre": "EL CAMPO (SAN PABLO)", "canton": "SAN CARLOS" }, "geometry": { "type": "Point", "coordinates": [ -84.449645619999984, 10.30619336 ] } },
{ "type": "Feature", "properties": { "cat": 257, "pk_uid": 257, "nombre": "EL CARMEN", "canton": "SAN CARLOS" }, "geometry": { "type": "Point", "coordinates": [ -84.24946873, 10.80377223 ] } },
{ "type": "Feature", "properties": { "cat": 258, "pk_uid": 258, "nombre": "EL CARMEN", "canton": "SAN CARLOS" }, "geometry": { "type": "Point", "coordinates": [ -84.460851529999985, 10.33423545 ] } },
{ "type": "Feature", "properties": { "cat": 259, "pk_uid": 259, "nombre": "EL CONCHITO", "canton": "SAN CARLOS" }, "geometry": { "type": "Point", "coordinates": [ -84.544350649999984, 10.77827842 ] } },
{ "type": "Feature", "properties": { "cat": 260, "pk_uid": 260, "nombre": "EL CONCHO", "canton": "SAN CARLOS" }, "geometry": { "type": "Point", "coordinates": [ -84.544350649999984, 10.77827842 ] } },
{ "type": "Feature", "properties": { "cat": 261, "pk_uid": 261, "nombre": "EL ENCANTO", "canton": "SAN CARLOS" }, "geometry": { "type": "Point", "coordinates": [ -84.285622599999982, 10.47809414 ] } },
{ "type": "Feature", "properties": { "cat": 262, "pk_uid": 262, "nombre": "EL FUTURO", "canton": "SAN CARLOS" }, "geometry": { "type": "Point", "coordinates": [ -84.603067489999987, 10.36078006 ] } },
{ "type": "Feature", "properties": { "cat": 263, "pk_uid": 263, "nombre": "EL JARDIN", "canton": "SAN CARLOS" }, "geometry": { "type": "Point", "coordinates": [ -84.302523619999988, 10.47665897 ] } },
{ "type": "Feature", "properties": { "cat": 264, "pk_uid": 264, "nombre": "EL JARDIN", "canton": "SAN CARLOS" }, "geometry": { "type": "Point", "coordinates": [ -84.24946873, 10.80377223 ] } },
{ "type": "Feature", "properties": { "cat": 265, "pk_uid": 265, "nombre": "EL MOLINO", "canton": "SAN CARLOS" }, "geometry": { "type": "Point", "coordinates": [ -84.559553599999987, 10.41277359 ] } },
{ "type": "Feature", "properties": { "cat": 266, "pk_uid": 266, "nombre": "EL PALMAR", "canton": "SAN CARLOS" }, "geometry": { "type": "Point", "coordinates": [ -84.328798959999986, 10.51874549 ] } },
{ "type": "Feature", "properties": { "cat": 267, "pk_uid": 267, "nombre": "EL PEJE", "canton": "SAN CARLOS" }, "geometry": { "type": "Point", "coordinates": [ -84.499784109999979, 10.42482881 ] } },
{ "type": "Feature", "properties": { "cat": 268, "pk_uid": 268, "nombre": "EL PLOMO", "canton": "SAN CARLOS" }, "geometry": { "type": "Point", "coordinates": [ -84.544350649999984, 10.77827842 ] } },
{ "type": "Feature", "properties": { "cat": 269, "pk_uid": 269, "nombre": "EL ROBLE", "canton": "SAN CARLOS" }, "geometry": { "type": "Point", "coordinates": [ -84.224090419999982, 10.73520469 ] } },
{ "type": "Feature", "properties": { "cat": 270, "pk_uid": 270, "nombre": "EL SAINO", "canton": "SAN CARLOS" }, "geometry": { "type": "Point", "coordinates": [ -84.328798959999986, 10.51874549 ] } },
{ "type": "Feature", "properties": { "cat": 271, "pk_uid": 271, "nombre": "EL TANQUE", "canton": "SAN CARLOS" }, "geometry": { "type": "Point", "coordinates": [ -84.616143439999988, 10.48391451 ] } },
{ "type": "Feature", "properties": { "cat": 272, "pk_uid": 272, "nombre": "ENTRE RIOS", "canton": "SAN CARLOS" }, "geometry": { "type": "Point", "coordinates": [ -84.787439779999985, 10.56157877 ] } },
{ "type": "Feature", "properties": { "cat": 273, "pk_uid": 273, "nombre": "ERMIDA BLANCO GONZALEZ", "canton": "SAN CARLOS" }, "geometry": { "type": "Point", "coordinates": [ -84.518246069999989, 10.33823756 ] } },
{ "type": "Feature", "properties": { "cat": 274, "pk_uid": 274, "nombre": "ESQUIPULAS", "canton": "SAN CARLOS" }, "geometry": { "type": "Point", "coordinates": [ -84.358984329999984, 10.47621483 ] } },
{ "type": "Feature", "properties": { "cat": 275, "pk_uid": 275, "nombre": "ESTERITO", "canton": "SAN CARLOS" }, "geometry": { "type": "Point", "coordinates": [ -84.575804689999984, 10.57180183 ] } },
{ "type": "Feature", "properties": { "cat": 276, "pk_uid": 276, "nombre": "ESTRELLITAS", "canton": "SAN CARLOS" }, "geometry": { "type": "Point", "coordinates": [ -84.28164925999998, 10.3362635 ] } },
{ "type": "Feature", "properties": { "cat": 277, "pk_uid": 277, "nombre": "FINCA ZETA TRECE", "canton": "SAN CARLOS" }, "geometry": { "type": "Point", "coordinates": [ -84.616143439999988, 10.48391451 ] } },
{ "type": "Feature", "properties": { "cat": 278, "pk_uid": 278, "nombre": "FORM.INTEG. MONTECARLO", "canton": "SAN CARLOS" }, "geometry": { "type": "Point", "coordinates": [ -84.358984329999984, 10.47621483 ] } },
{ "type": "Feature", "properties": { "cat": 279, "pk_uid": 279, "nombre": "GAMONALES", "canton": "SAN CARLOS" }, "geometry": { "type": "Point", "coordinates": [ -84.469765639999977, 10.36421376 ] } },
{ "type": "Feature", "properties": { "cat": 280, "pk_uid": 280, "nombre": "GERMAN ROJAS ARAYA", "canton": "SAN CARLOS" }, "geometry": { "type": "Point", "coordinates": [ -84.462216429999984, 10.51567155 ] } },
{ "type": "Feature", "properties": { "cat": 281, "pk_uid": 281, "nombre": "GONZALO MONGE BERMUDEZ", "canton": "SAN CARLOS" }, "geometry": { "type": "Point", "coordinates": [ -84.298495279999983, 10.45953163 ] } },
{ "type": "Feature", "properties": { "cat": 282, "pk_uid": 282, "nombre": "GREEN FOREST SCHOOL", "canton": "SAN CARLOS" }, "geometry": { "type": "Point", "coordinates": [ -84.454273139999984, 10.28210033 ] } },
{ "type": "Feature", "properties": { "cat": 283, "pk_uid": 283, "nombre": "GUARUMAL", "canton": "SAN CARLOS" }, "geometry": { "type": "Point", "coordinates": [ -84.410204659999977, 10.78193881 ] } },
{ "type": "Feature", "properties": { "cat": 284, "pk_uid": 284, "nombre": "HERNAN KOSCHNY CASCANTE", "canton": "SAN CARLOS" }, "geometry": { "type": "Point", "coordinates": [ -84.602710439999981, 10.4920539 ] } },
{ "type": "Feature", "properties": { "cat": 285, "pk_uid": 285, "nombre": "HUACAS", "canton": "SAN CARLOS" }, "geometry": { "type": "Point", "coordinates": [ -84.28164925999998, 10.3362635 ] } },
{ "type": "Feature", "properties": { "cat": 286, "pk_uid": 286, "nombre": "I.D.A. GARABITO", "canton": "SAN CARLOS" }, "geometry": { "type": "Point", "coordinates": [ -84.358984329999984, 10.47621483 ] } },
{ "type": "Feature", "properties": { "cat": 287, "pk_uid": 287, "nombre": "IDA LAS PARCELAS (CARMEN)", "canton": "SAN CARLOS" }, "geometry": { "type": "Point", "coordinates": [ -84.328798959999986, 10.51874549 ] } },
{ "type": "Feature", "properties": { "cat": 288, "pk_uid": 288, "nombre": "INST. EDUC. SAN ISIDRO", "canton": "SAN CARLOS" }, "geometry": { "type": "Point", "coordinates": [ -84.298495279999983, 10.45953163 ] } },
{ "type": "Feature", "properties": { "cat": 289, "pk_uid": 289, "nombre": "JAMAICA", "canton": "SAN CARLOS" }, "geometry": { "type": "Point", "coordinates": [ -84.535535199999984, 10.57978184000001 ] } },
{ "type": "Feature", "properties": { "cat": 290, "pk_uid": 290, "nombre": "JOSE MARIA VARGAS ARIAS", "canton": "SAN CARLOS" }, "geometry": { "type": "Point", "coordinates": [ -84.299193719999977, 10.36191773 ] } },
{ "type": "Feature", "properties": { "cat": 291, "pk_uid": 291, "nombre": "JOSE RODRIGUEZ MARTINEZ", "canton": "SAN CARLOS" }, "geometry": { "type": "Point", "coordinates": [ -84.358984329999984, 10.47621483 ] } },
{ "type": "Feature", "properties": { "cat": 292, "pk_uid": 292, "nombre": "JUAN BAUTISTA SOLIS R.", "canton": "SAN CARLOS" }, "geometry": { "type": "Point", "coordinates": [ -84.449645619999984, 10.30619336 ] } },
{ "type": "Feature", "properties": { "cat": 293, "pk_uid": 293, "nombre": "JUAN CHAVES ROJAS", "canton": "SAN CARLOS" }, "geometry": { "type": "Point", "coordinates": [ -84.45951664, 10.29133885 ] } },
{ "type": "Feature", "properties": { "cat": 294, "pk_uid": 294, "nombre": "JUAN FELIX ESTRADA", "canton": "SAN CARLOS" }, "geometry": { "type": "Point", "coordinates": [ -84.277664349999981, 10.34789734 ] } },
{ "type": "Feature", "properties": { "cat": 295, "pk_uid": 295, "nombre": "JUAN MANSO ESTEVEZ", "canton": "SAN CARLOS" }, "geometry": { "type": "Point", "coordinates": [ -84.545180959999982, 10.33106205 ] } },
{ "type": "Feature", "properties": { "cat": 296, "pk_uid": 296, "nombre": "JUAN RAFAEL CHACON CASTRO", "canton": "SAN CARLOS" }, "geometry": { "type": "Point", "coordinates": [ -84.221722569999983, 10.78549063 ] } },
{ "type": "Feature", "properties": { "cat": 297, "pk_uid": 297, "nombre": "JUAN SANTAMARIA", "canton": "SAN CARLOS" }, "geometry": { "type": "Point", "coordinates": [ -84.505183989999978, 10.40590719 ] } },
{ "type": "Feature", "properties": { "cat": 298, "pk_uid": 298, "nombre": "JUANILAMA", "canton": "SAN CARLOS" }, "geometry": { "type": "Point", "coordinates": [ -84.625917849999979, 10.62055662 ] } },
{ "type": "Feature", "properties": { "cat": 299, "pk_uid": 299, "nombre": "KOOPER MUELLE", "canton": "SAN CARLOS" }, "geometry": { "type": "Point", "coordinates": [ -84.471091339999987, 10.49255437 ] } },
{ "type": "Feature", "properties": { "cat": 300, "pk_uid": 300, "nombre": "LA ALDEA", "canton": "SAN CARLOS" }, "geometry": { "type": "Point", "coordinates": [ -84.544350649999984, 10.77827842 ] } },
{ "type": "Feature", "properties": { "cat": 301, "pk_uid": 301, "nombre": "LA AZUCENA", "canton": "SAN CARLOS" }, "geometry": { "type": "Point", "coordinates": [ -84.544350649999984, 10.77827842 ] } },
{ "type": "Feature", "properties": { "cat": 302, "pk_uid": 302, "nombre": "LA CAJETA", "canton": "SAN CARLOS" }, "geometry": { "type": "Point", "coordinates": [ -84.24946873, 10.80377223 ] } },
{ "type": "Feature", "properties": { "cat": 303, "pk_uid": 303, "nombre": "LA CASCADA", "canton": "SAN CARLOS" }, "geometry": { "type": "Point", "coordinates": [ -84.24946873, 10.80377223 ] } },
{ "type": "Feature", "properties": { "cat": 304, "pk_uid": 304, "nombre": "LA CEIBA", "canton": "SAN CARLOS" }, "geometry": { "type": "Point", "coordinates": [ -84.545180959999982, 10.33106205 ] } },
{ "type": "Feature", "properties": { "cat": 305, "pk_uid": 305, "nombre": "LA FORTUNA", "canton": "SAN CARLOS" }, "geometry": { "type": "Point", "coordinates": [ -84.695068909999989, 10.50207633 ] } },
{ "type": "Feature", "properties": { "cat": 306, "pk_uid": 306, "nombre": "LA GLORIA", "canton": "SAN CARLOS" }, "geometry": { "type": "Point", "coordinates": [ -84.358984329999984, 10.47621483 ] } },
{ "type": "Feature", "properties": { "cat": 307, "pk_uid": 307, "nombre": "LA GUARIA", "canton": "SAN CARLOS" }, "geometry": { "type": "Point", "coordinates": [ -84.544350649999984, 10.77827842 ] } },
{ "type": "Feature", "properties": { "cat": 308, "pk_uid": 308, "nombre": "LA GUARIA", "canton": "SAN CARLOS" }, "geometry": { "type": "Point", "coordinates": [ -84.695068909999989, 10.50207633 ] } },
{ "type": "Feature", "properties": { "cat": 309, "pk_uid": 309, "nombre": "LA LEGUA", "canton": "SAN CARLOS" }, "geometry": { "type": "Point", "coordinates": [ -84.328798959999986, 10.51874549 ] } },
{ "type": "Feature", "properties": { "cat": 310, "pk_uid": 310, "nombre": "LA LUCHA", "canton": "SAN CARLOS" }, "geometry": { "type": "Point", "coordinates": [ -84.603067489999987, 10.36078006 ] } },
{ "type": "Feature", "properties": { "cat": 311, "pk_uid": 311, "nombre": "LA LUISA", "canton": "SAN CARLOS" }, "geometry": { "type": "Point", "coordinates": [ -84.544350649999984, 10.77827842 ] } },
{ "type": "Feature", "properties": { "cat": 312, "pk_uid": 312, "nombre": "LA ORQUIDEA", "canton": "SAN CARLOS" }, "geometry": { "type": "Point", "coordinates": [ -84.724513529999982, 10.62056898 ] } },
{ "type": "Feature", "properties": { "cat": 313, "pk_uid": 313, "nombre": "LA PALMERA", "canton": "SAN CARLOS" }, "geometry": { "type": "Point", "coordinates": [ -84.410975899999983, 10.42754221 ] } },
{ "type": "Feature", "properties": { "cat": 314, "pk_uid": 314, "nombre": "LA PERLA", "canton": "SAN CARLOS" }, "geometry": { "type": "Point", "coordinates": [ -84.695068909999989, 10.50207633 ] } },
{ "type": "Feature", "properties": { "cat": 315, "pk_uid": 315, "nombre": "LA PRADERA", "canton": "SAN CARLOS" }, "geometry": { "type": "Point", "coordinates": [ -84.285622599999982, 10.47809414 ] } },
{ "type": "Feature", "properties": { "cat": 316, "pk_uid": 316, "nombre": "LA TESALIA", "canton": "SAN CARLOS" }, "geometry": { "type": "Point", "coordinates": [ -84.432281299999985, 10.36377832 ] } },
{ "type": "Feature", "properties": { "cat": 317, "pk_uid": 317, "nombre": "LA TIGRA", "canton": "SAN CARLOS" }, "geometry": { "type": "Point", "coordinates": [ -84.859543889999983, 10.60000286 ] } },
{ "type": "Feature", "properties": { "cat": 318, "pk_uid": 318, "nombre": "LA TIGRA", "canton": "SAN CARLOS" }, "geometry": { "type": "Point", "coordinates": [ -84.614978709999988, 10.34726165 ] } },
{ "type": "Feature", "properties": { "cat": 319, "pk_uid": 319, "nombre": "LA TIRICIA", "canton": "SAN CARLOS" }, "geometry": { "type": "Point", "coordinates": [ -84.544350649999984, 10.77827842 ] } },
{ "type": "Feature", "properties": { "cat": 320, "pk_uid": 320, "nombre": "LA UNION", "canton": "SAN CARLOS" }, "geometry": { "type": "Point", "coordinates": [ -84.724513529999982, 10.62056898 ] } },
{ "type": "Feature", "properties": { "cat": 321, "pk_uid": 321, "nombre": "LA UNION", "canton": "SAN CARLOS" }, "geometry": { "type": "Point", "coordinates": [ -84.410975899999983, 10.42754221 ] } },
{ "type": "Feature", "properties": { "cat": 322, "pk_uid": 322, "nombre": "LA UNION", "canton": "SAN CARLOS" }, "geometry": { "type": "Point", "coordinates": [ -84.291017189999977, 10.3476761 ] } },
{ "type": "Feature", "properties": { "cat": 323, "pk_uid": 323, "nombre": "LA VEGA", "canton": "SAN CARLOS" }, "geometry": { "type": "Point", "coordinates": [ -84.518246069999989, 10.33823756 ] } },
{ "type": "Feature", "properties": { "cat": 324, "pk_uid": 324, "nombre": "LAS BANDERAS", "canton": "SAN CARLOS" }, "geometry": { "type": "Point", "coordinates": [ -84.498342339999979, 10.84649701 ] } },
{ "type": "Feature", "properties": { "cat": 325, "pk_uid": 325, "nombre": "LAS BRISAS", "canton": "SAN CARLOS" }, "geometry": { "type": "Point", "coordinates": [ -84.544350649999984, 10.77827842 ] } },
{ "type": "Feature", "properties": { "cat": 326, "pk_uid": 326, "nombre": "LAS BRISAS", "canton": "SAN CARLOS" }, "geometry": { "type": "Point", "coordinates": [ -84.28164925999998, 10.3362635 ] } },
{ "type": "Feature", "properties": { "cat": 327, "pk_uid": 327, "nombre": "LAS DELICIAS", "canton": "SAN CARLOS" }, "geometry": { "type": "Point", "coordinates": [ -84.724513529999982, 10.62056898 ] } },
{ "type": "Feature", "properties": { "cat": 328, "pk_uid": 328, "nombre": "LAS DELICIAS VENADO", "canton": "SAN CARLOS" }, "geometry": { "type": "Point", "coordinates": [ -84.739787689999986, 10.60506772 ] } },
{ "type": "Feature", "properties": { "cat": 329, "pk_uid": 329, "nombre": "LAS MERCEDES", "canton": "SAN CARLOS" }, "geometry": { "type": "Point", "coordinates": [ -84.449645619999984, 10.30619336 ] } },
{ "type": "Feature", "properties": { "cat": 330, "pk_uid": 330, "nombre": "LAS NIEVES", "canton": "SAN CARLOS" }, "geometry": { "type": "Point", "coordinates": [ -84.544350649999984, 10.77827842 ] } },
{ "type": "Feature", "properties": { "cat": 331, "pk_uid": 331, "nombre": "LAS PALMAS", "canton": "SAN CARLOS" }, "geometry": { "type": "Point", "coordinates": [ -84.598707159999989, 10.3803881 ] } },
{ "type": "Feature", "properties": { "cat": 332, "pk_uid": 332, "nombre": "LAUREL GALAN", "canton": "SAN CARLOS" }, "geometry": { "type": "Point", "coordinates": [ -84.544350649999984, 10.77827842 ] } },
{ "type": "Feature", "properties": { "cat": 333, "pk_uid": 333, "nombre": "LIMONCITO DE CUTRIS", "canton": "SAN CARLOS" }, "geometry": { "type": "Point", "coordinates": [ -84.38309513999998, 10.71824192 ] } },
{ "type": "Feature", "properties": { "cat": 334, "pk_uid": 334, "nombre": "LINDA VISTA", "canton": "SAN CARLOS" }, "geometry": { "type": "Point", "coordinates": [ -84.443692109999986, 10.37946176 ] } },
{ "type": "Feature", "properties": { "cat": 335, "pk_uid": 335, "nombre": "LINDA VISTA", "canton": "SAN CARLOS" }, "geometry": { "type": "Point", "coordinates": [ -84.762483329999981, 10.57096446 ] } },
{ "type": "Feature", "properties": { "cat": 336, "pk_uid": 336, "nombre": "LLANO VERDE", "canton": "SAN CARLOS" }, "geometry": { "type": "Point", "coordinates": [ -84.411728019999984, 10.88700641 ] } },
{ "type": "Feature", "properties": { "cat": 337, "pk_uid": 337, "nombre": "LOS ALMENDROS", "canton": "SAN CARLOS" }, "geometry": { "type": "Point", "coordinates": [ -84.38309513999998, 10.71824192 ] } },
{ "type": "Feature", "properties": { "cat": 338, "pk_uid": 338, "nombre": "LOS ALPES", "canton": "SAN CARLOS" }, "geometry": { "type": "Point", "coordinates": [ -84.28164925999998, 10.3362635 ] } },
{ "type": "Feature", "properties": { "cat": 339, "pk_uid": 339, "nombre": "LOS ANGELES", "canton": "SAN CARLOS" }, "geometry": { "type": "Point", "coordinates": [ -84.587922269999979, 10.46405821 ] } },
{ "type": "Feature", "properties": { "cat": 340, "pk_uid": 340, "nombre": "LOS ANGELES", "canton": "SAN CARLOS" }, "geometry": { "type": "Point", "coordinates": [ -84.526479789999982, 10.67076199 ] } },
{ "type": "Feature", "properties": { "cat": 341, "pk_uid": 341, "nombre": "LOS ANGELES", "canton": "SAN CARLOS" }, "geometry": { "type": "Point", "coordinates": [ -84.285622599999982, 10.47809414 ] } },
{ "type": "Feature", "properties": { "cat": 342, "pk_uid": 342, "nombre": "LOS CERRITOS", "canton": "SAN CARLOS" }, "geometry": { "type": "Point", "coordinates": [ -84.614978709999988, 10.34726165 ] } },
{ "type": "Feature", "properties": { "cat": 343, "pk_uid": 343, "nombre": "LOS CHILES", "canton": "SAN CARLOS" }, "geometry": { "type": "Point", "coordinates": [ -84.358984329999984, 10.47621483 ] } },
{ "type": "Feature", "properties": { "cat": 344, "pk_uid": 344, "nombre": "LOS LLANOS", "canton": "SAN CARLOS" }, "geometry": { "type": "Point", "coordinates": [ -84.358984329999984, 10.47621483 ] } },
{ "type": "Feature", "properties": { "cat": 345, "pk_uid": 345, "nombre": "MAJAGUA", "canton": "SAN CARLOS" }, "geometry": { "type": "Point", "coordinates": [ -84.434775649999978, 10.94638361 ] } },
{ "type": "Feature", "properties": { "cat": 346, "pk_uid": 346, "nombre": "MARIA INMACULADA", "canton": "SAN CARLOS" }, "geometry": { "type": "Point", "coordinates": [ -84.45951664, 10.29133885 ] } },
{ "type": "Feature", "properties": { "cat": 347, "pk_uid": 347, "nombre": "MARIO SALAZAR MORA", "canton": "SAN CARLOS" }, "geometry": { "type": "Point", "coordinates": [ -84.358984329999984, 10.47621483 ] } },
{ "type": "Feature", "properties": { "cat": 348, "pk_uid": 348, "nombre": "METODISTA", "canton": "SAN CARLOS" }, "geometry": { "type": "Point", "coordinates": [ -84.466409219999989, 10.37334308 ] } },
{ "type": "Feature", "properties": { "cat": 349, "pk_uid": 349, "nombre": "MIRADOR", "canton": "SAN CARLOS" }, "geometry": { "type": "Point", "coordinates": [ -84.717078489999977, 10.58336368 ] } },
{ "type": "Feature", "properties": { "cat": 350, "pk_uid": 350, "nombre": "MONTECRISTO", "canton": "SAN CARLOS" }, "geometry": { "type": "Point", "coordinates": [ -84.358984329999984, 10.47621483 ] } },
{ "type": "Feature", "properties": { "cat": 351, "pk_uid": 351, "nombre": "MONTELIMAR", "canton": "SAN CARLOS" }, "geometry": { "type": "Point", "coordinates": [ -84.717078489999977, 10.58336368 ] } },
{ "type": "Feature", "properties": { "cat": 352, "pk_uid": 352, "nombre": "MONTERREY", "canton": "SAN CARLOS" }, "geometry": { "type": "Point", "coordinates": [ -84.717078489999977, 10.58336368 ] } },
{ "type": "Feature", "properties": { "cat": 353, "pk_uid": 353, "nombre": "MORAZAN", "canton": "SAN CARLOS" }, "geometry": { "type": "Point", "coordinates": [ -84.48595247999998, 10.65227214 ] } },
{ "type": "Feature", "properties": { "cat": 354, "pk_uid": 354, "nombre": "OSCAR RULAMAN SALAS R.", "canton": "SAN CARLOS" }, "geometry": { "type": "Point", "coordinates": [ -84.271449979999986, 10.52011035 ] } },
{ "type": "Feature", "properties": { "cat": 355, "pk_uid": 355, "nombre": "PARAISO", "canton": "SAN CARLOS" }, "geometry": { "type": "Point", "coordinates": [ -84.523955199999989, 10.72585006 ] } },
{ "type": "Feature", "properties": { "cat": 356, "pk_uid": 356, "nombre": "PASO REAL", "canton": "SAN CARLOS" }, "geometry": { "type": "Point", "coordinates": [ -84.483055079999986, 10.75822947 ] } },
{ "type": "Feature", "properties": { "cat": 357, "pk_uid": 357, "nombre": "PATASTE", "canton": "SAN CARLOS" }, "geometry": { "type": "Point", "coordinates": [ -84.718940549999985, 10.56285922 ] } },
{ "type": "Feature", "properties": { "cat": 358, "pk_uid": 358, "nombre": "PATASTILLO", "canton": "SAN CARLOS" }, "geometry": { "type": "Point", "coordinates": [ -84.556187629999982, 10.50330999 ] } },
{ "type": "Feature", "properties": { "cat": 359, "pk_uid": 359, "nombre": "PENJAMO", "canton": "SAN CARLOS" }, "geometry": { "type": "Point", "coordinates": [ -84.499784109999979, 10.42482881 ] } },
{ "type": "Feature", "properties": { "cat": 360, "pk_uid": 360, "nombre": "PITALITO SUR", "canton": "SAN CARLOS" }, "geometry": { "type": "Point", "coordinates": [ -84.358984329999984, 10.47621483 ] } },
{ "type": "Feature", "properties": { "cat": 361, "pk_uid": 361, "nombre": "PLATANAR", "canton": "SAN CARLOS" }, "geometry": { "type": "Point", "coordinates": [ -84.499784109999979, 10.42482881 ] } },
{ "type": "Feature", "properties": { "cat": 362, "pk_uid": 362, "nombre": "POCOSOL", "canton": "SAN CARLOS" }, "geometry": { "type": "Point", "coordinates": [ -84.496695069999987, 10.95169012 ] } },
{ "type": "Feature", "properties": { "cat": 363, "pk_uid": 363, "nombre": "PORVENIR", "canton": "SAN CARLOS" }, "geometry": { "type": "Point", "coordinates": [ -84.45779285, 10.29910604 ] } },
{ "type": "Feature", "properties": { "cat": 364, "pk_uid": 364, "nombre": "PUEBLO NUEVO", "canton": "SAN CARLOS" }, "geometry": { "type": "Point", "coordinates": [ -84.330958689999989, 10.66364317 ] } },
{ "type": "Feature", "properties": { "cat": 365, "pk_uid": 365, "nombre": "PUEBLO VIEJO", "canton": "SAN CARLOS" }, "geometry": { "type": "Point", "coordinates": [ -84.306945359999986, 10.35919724 ] } },
{ "type": "Feature", "properties": { "cat": 366, "pk_uid": 366, "nombre": "PUENTE CASA", "canton": "SAN CARLOS" }, "geometry": { "type": "Point", "coordinates": [ -84.499784109999979, 10.42482881 ] } },
{ "type": "Feature", "properties": { "cat": 367, "pk_uid": 367, "nombre": "PUERTO ESCONDIDO", "canton": "SAN CARLOS" }, "geometry": { "type": "Point", "coordinates": [ -84.311792159999982, 10.46766841 ] } },
{ "type": "Feature", "properties": { "cat": 368, "pk_uid": 368, "nombre": "PUERTO SECO", "canton": "SAN CARLOS" }, "geometry": { "type": "Point", "coordinates": [ -84.743791529999982, 10.62093637000001 ] } },
{ "type": "Feature", "properties": { "cat": 369, "pk_uid": 369, "nombre": "QUEBRADA GRANDE", "canton": "SAN CARLOS" }, "geometry": { "type": "Point", "coordinates": [ -84.326880809999977, 10.56515823 ] } },
{ "type": "Feature", "properties": { "cat": 370, "pk_uid": 370, "nombre": "RANCHO QUEMADO", "canton": "SAN CARLOS" }, "geometry": { "type": "Point", "coordinates": [ -84.434775649999978, 10.94638361 ] } },
{ "type": "Feature", "properties": { "cat": 371, "pk_uid": 371, "nombre": "REPUBLICA DE ITALIA", "canton": "SAN CARLOS" }, "geometry": { "type": "Point", "coordinates": [ -84.545180959999982, 10.33106205 ] } },
{ "type": "Feature", "properties": { "cat": 372, "pk_uid": 372, "nombre": "RIO TICO", "canton": "SAN CARLOS" }, "geometry": { "type": "Point", "coordinates": [ -84.37560852999998, 10.76281736 ] } },
{ "type": "Feature", "properties": { "cat": 373, "pk_uid": 373, "nombre": "RON RON ABAJO", "canton": "SAN CARLOS" }, "geometry": { "type": "Point", "coordinates": [ -84.477897939999977, 10.30662101 ] } },
{ "type": "Feature", "properties": { "cat": 374, "pk_uid": 374, "nombre": "SABALITO", "canton": "SAN CARLOS" }, "geometry": { "type": "Point", "coordinates": [ -84.586859579999981, 10.50048808 ] } },
{ "type": "Feature", "properties": { "cat": 375, "pk_uid": 375, "nombre": "SAN ALEJO", "canton": "SAN CARLOS" }, "geometry": { "type": "Point", "coordinates": [ -84.434775649999978, 10.94638361 ] } },
{ "type": "Feature", "properties": { "cat": 376, "pk_uid": 376, "nombre": "SAN ANDRES", "canton": "SAN CARLOS" }, "geometry": { "type": "Point", "coordinates": [ -84.434775649999978, 10.94638361 ] } },
{ "type": "Feature", "properties": { "cat": 377, "pk_uid": 377, "nombre": "SAN ANTONIO", "canton": "SAN CARLOS" }, "geometry": { "type": "Point", "coordinates": [ -84.586859579999981, 10.50048808 ] } },
{ "type": "Feature", "properties": { "cat": 378, "pk_uid": 378, "nombre": "SAN BOSCO", "canton": "SAN CARLOS" }, "geometry": { "type": "Point", "coordinates": [ -84.434775649999978, 10.94638361 ] } },
{ "type": "Feature", "properties": { "cat": 379, "pk_uid": 379, "nombre": "SAN CAYETANO", "canton": "SAN CARLOS" }, "geometry": { "type": "Point", "coordinates": [ -84.307491109999987, 10.38236281 ] } },
{ "type": "Feature", "properties": { "cat": 380, "pk_uid": 380, "nombre": "SAN CRISTOBAL", "canton": "SAN CARLOS" }, "geometry": { "type": "Point", "coordinates": [ -84.434775649999978, 10.94638361 ] } },
{ "type": "Feature", "properties": { "cat": 381, "pk_uid": 381, "nombre": "SAN CRISTOBAL", "canton": "SAN CARLOS" }, "geometry": { "type": "Point", "coordinates": [ -84.616143439999988, 10.48391451 ] } },
{ "type": "Feature", "properties": { "cat": 382, "pk_uid": 382, "nombre": "SAN DIEGO", "canton": "SAN CARLOS" }, "geometry": { "type": "Point", "coordinates": [ -84.434775649999978, 10.94638361 ] } },
{ "type": "Feature", "properties": { "cat": 383, "pk_uid": 383, "nombre": "SAN FERNANDO", "canton": "SAN CARLOS" }, "geometry": { "type": "Point", "coordinates": [ -84.556187629999982, 10.50330999 ] } },
{ "type": "Feature", "properties": { "cat": 384, "pk_uid": 384, "nombre": "SAN FRANCISCO", "canton": "SAN CARLOS" }, "geometry": { "type": "Point", "coordinates": [ -84.358984329999984, 10.47621483 ] } },
{ "type": "Feature", "properties": { "cat": 385, "pk_uid": 385, "nombre": "SAN FRANCISCO", "canton": "SAN CARLOS" }, "geometry": { "type": "Point", "coordinates": [ -84.545180959999982, 10.33106205 ] } },
{ "type": "Feature", "properties": { "cat": 386, "pk_uid": 386, "nombre": "SAN FRANCISCO DE ASIS", "canton": "SAN CARLOS" }, "geometry": { "type": "Point", "coordinates": [ -84.454273139999984, 10.28210033 ] } },
{ "type": "Feature", "properties": { "cat": 387, "pk_uid": 387, "nombre": "SAN GABRIEL", "canton": "SAN CARLOS" }, "geometry": { "type": "Point", "coordinates": [ -84.724513529999982, 10.62056898 ] } },
{ "type": "Feature", "properties": { "cat": 388, "pk_uid": 388, "nombre": "SAN GERARDO", "canton": "SAN CARLOS" }, "geometry": { "type": "Point", "coordinates": [ -84.449645619999984, 10.30619336 ] } },
{ "type": "Feature", "properties": { "cat": 389, "pk_uid": 389, "nombre": "SAN GERARDO", "canton": "SAN CARLOS" }, "geometry": { "type": "Point", "coordinates": [ -84.434775649999978, 10.94638361 ] } },
{ "type": "Feature", "properties": { "cat": 390, "pk_uid": 390, "nombre": "SAN ISIDRO", "canton": "SAN CARLOS" }, "geometry": { "type": "Point", "coordinates": [ -84.633902099999986, 10.3389456 ] } },
{ "type": "Feature", "properties": { "cat": 391, "pk_uid": 391, "nombre": "SAN ISIDRO", "canton": "SAN CARLOS" }, "geometry": { "type": "Point", "coordinates": [ -84.434775649999978, 10.94638361 ] } },
{ "type": "Feature", "properties": { "cat": 392, "pk_uid": 392, "nombre": "SAN JOAQUIN", "canton": "SAN CARLOS" }, "geometry": { "type": "Point", "coordinates": [ -84.556187629999982, 10.50330999 ] } },
{ "type": "Feature", "properties": { "cat": 393, "pk_uid": 393, "nombre": "SAN JORGE", "canton": "SAN CARLOS" }, "geometry": { "type": "Point", "coordinates": [ -84.602710439999981, 10.4920539 ] } },
{ "type": "Feature", "properties": { "cat": 394, "pk_uid": 394, "nombre": "SAN JOSE", "canton": "SAN CARLOS" }, "geometry": { "type": "Point", "coordinates": [ -84.556187629999982, 10.50330999 ] } },
{ "type": "Feature", "properties": { "cat": 395, "pk_uid": 395, "nombre": "SAN JOSE", "canton": "SAN CARLOS" }, "geometry": { "type": "Point", "coordinates": [ -84.630951339999982, 10.36559758 ] } },
{ "type": "Feature", "properties": { "cat": 396, "pk_uid": 396, "nombre": "SAN JOSE", "canton": "SAN CARLOS" }, "geometry": { "type": "Point", "coordinates": [ -84.358984329999984, 10.47621483 ] } },
{ "type": "Feature", "properties": { "cat": 397, "pk_uid": 397, "nombre": "SAN JUAN", "canton": "SAN CARLOS" }, "geometry": { "type": "Point", "coordinates": [ -84.449645619999984, 10.30619336 ] } },
{ "type": "Feature", "properties": { "cat": 398, "pk_uid": 398, "nombre": "SAN JUAN", "canton": "SAN CARLOS" }, "geometry": { "type": "Point", "coordinates": [ -84.586859579999981, 10.50048808 ] } },
{ "type": "Feature", "properties": { "cat": 399, "pk_uid": 399, "nombre": "SAN LUIS", "canton": "SAN CARLOS" }, "geometry": { "type": "Point", "coordinates": [ -84.449645619999984, 10.30619336 ] } },
{ "type": "Feature", "properties": { "cat": 400, "pk_uid": 400, "nombre": "SAN LUIS", "canton": "SAN CARLOS" }, "geometry": { "type": "Point", "coordinates": [ -84.434775649999978, 10.94638361 ] } },
{ "type": "Feature", "properties": { "cat": 401, "pk_uid": 401, "nombre": "SAN LUIS", "canton": "SAN CARLOS" }, "geometry": { "type": "Point", "coordinates": [ -84.545180959999982, 10.33106205 ] } },
{ "type": "Feature", "properties": { "cat": 402, "pk_uid": 402, "nombre": "SAN MARCOS", "canton": "SAN CARLOS" }, "geometry": { "type": "Point", "coordinates": [ -84.556187629999982, 10.50330999 ] } },
{ "type": "Feature", "properties": { "cat": 403, "pk_uid": 403, "nombre": "SAN MARTIN", "canton": "SAN CARLOS" }, "geometry": { "type": "Point", "coordinates": [ -84.449645619999984, 10.30619336 ] } },
{ "type": "Feature", "properties": { "cat": 404, "pk_uid": 404, "nombre": "SAN MARTIN", "canton": "SAN CARLOS" }, "geometry": { "type": "Point", "coordinates": [ -84.434775649999978, 10.94638361 ] } },
{ "type": "Feature", "properties": { "cat": 405, "pk_uid": 405, "nombre": "SAN MARTIN", "canton": "SAN CARLOS" }, "geometry": { "type": "Point", "coordinates": [ -84.307491109999987, 10.38236281 ] } },
{ "type": "Feature", "properties": { "cat": 406, "pk_uid": 406, "nombre": "SAN MIGUEL", "canton": "SAN CARLOS" }, "geometry": { "type": "Point", "coordinates": [ -84.575804689999984, 10.57180183 ] } },
{ "type": "Feature", "properties": { "cat": 407, "pk_uid": 407, "nombre": "SAN MIGUEL", "canton": "SAN CARLOS" }, "geometry": { "type": "Point", "coordinates": [ -84.666140369999979, 10.36611882 ] } },
{ "type": "Feature", "properties": { "cat": 408, "pk_uid": 408, "nombre": "SAN MIGUEL", "canton": "SAN CARLOS" }, "geometry": { "type": "Point", "coordinates": [ -84.586859579999981, 10.50048808 ] } },
{ "type": "Feature", "properties": { "cat": 409, "pk_uid": 409, "nombre": "SAN PEDRO", "canton": "SAN CARLOS" }, "geometry": { "type": "Point", "coordinates": [ -84.598707159999989, 10.3803881 ] } },
{ "type": "Feature", "properties": { "cat": 410, "pk_uid": 410, "nombre": "SAN PEDRO DE CUTRIS", "canton": "SAN CARLOS" }, "geometry": { "type": "Point", "coordinates": [ -84.556187629999982, 10.50330999 ] } },
{ "type": "Feature", "properties": { "cat": 411, "pk_uid": 411, "nombre": "SAN RAFAEL", "canton": "SAN CARLOS" }, "geometry": { "type": "Point", "coordinates": [ -84.449645619999984, 10.30619336 ] } },
{ "type": "Feature", "properties": { "cat": 412, "pk_uid": 412, "nombre": "SAN RAFAEL", "canton": "SAN CARLOS" }, "geometry": { "type": "Point", "coordinates": [ -84.545180959999982, 10.33106205 ] } },
{ "type": "Feature", "properties": { "cat": 413, "pk_uid": 413, "nombre": "SAN RAMON", "canton": "SAN CARLOS" }, "geometry": { "type": "Point", "coordinates": [ -84.449645619999984, 10.30619336 ] } },
{ "type": "Feature", "properties": { "cat": 414, "pk_uid": 414, "nombre": "SAN VICENTE", "canton": "SAN CARLOS" }, "geometry": { "type": "Point", "coordinates": [ -84.449645619999984, 10.30619336 ] } },
{ "type": "Feature", "properties": { "cat": 415, "pk_uid": 415, "nombre": "SAN VITO", "canton": "SAN CARLOS" }, "geometry": { "type": "Point", "coordinates": [ -84.556187629999982, 10.50330999 ] } },
{ "type": "Feature", "properties": { "cat": 416, "pk_uid": 416, "nombre": "SANGREGADO", "canton": "SAN CARLOS" }, "geometry": { "type": "Point", "coordinates": [ -84.830207109999989, 10.58175052 ] } },
{ "type": "Feature", "properties": { "cat": 417, "pk_uid": 417, "nombre": "SANTA CECILIA", "canton": "SAN CARLOS" }, "geometry": { "type": "Point", "coordinates": [ -84.22081889, 10.70748678 ] } },
{ "type": "Feature", "properties": { "cat": 418, "pk_uid": 418, "nombre": "SANTA EULALIA", "canton": "SAN CARLOS" }, "geometry": { "type": "Point", "coordinates": [ -84.586859579999981, 10.50048808 ] } },
{ "type": "Feature", "properties": { "cat": 419, "pk_uid": 419, "nombre": "SANTA FE", "canton": "SAN CARLOS" }, "geometry": { "type": "Point", "coordinates": [ -84.358984329999984, 10.47621483 ] } },
{ "type": "Feature", "properties": { "cat": 420, "pk_uid": 420, "nombre": "SANTA LUCIA", "canton": "SAN CARLOS" }, "geometry": { "type": "Point", "coordinates": [ -84.859543889999983, 10.60000286 ] } },
{ "type": "Feature", "properties": { "cat": 421, "pk_uid": 421, "nombre": "SANTA LUCIA", "canton": "SAN CARLOS" }, "geometry": { "type": "Point", "coordinates": [ -84.602710439999981, 10.4920539 ] } },
{ "type": "Feature", "properties": { "cat": 422, "pk_uid": 422, "nombre": "SANTA LUCIA", "canton": "SAN CARLOS" }, "geometry": { "type": "Point", "coordinates": [ -84.334406859999987, 10.56871986 ] } },
{ "type": "Feature", "properties": { "cat": 423, "pk_uid": 423, "nombre": "SANTA MARIA", "canton": "SAN CARLOS" }, "geometry": { "type": "Point", "coordinates": [ -84.434775649999978, 10.94638361 ] } },
{ "type": "Feature", "properties": { "cat": 424, "pk_uid": 424, "nombre": "SANTA RITA", "canton": "SAN CARLOS" }, "geometry": { "type": "Point", "coordinates": [ -84.545180959999982, 10.33106205 ] } },
{ "type": "Feature", "properties": { "cat": 425, "pk_uid": 425, "nombre": "SANTA ROSA", "canton": "SAN CARLOS" }, "geometry": { "type": "Point", "coordinates": [ -84.434775649999978, 10.94638361 ] } },
{ "type": "Feature", "properties": { "cat": 426, "pk_uid": 426, "nombre": "SANTA ROSA DE LA PALMERA", "canton": "SAN CARLOS" }, "geometry": { "type": "Point", "coordinates": [ -84.414486079999989, 10.40651337 ] } },
{ "type": "Feature", "properties": { "cat": 427, "pk_uid": 427, "nombre": "SANTA TERESA NORTE", "canton": "SAN CARLOS" }, "geometry": { "type": "Point", "coordinates": [ -84.22081889, 10.70748678 ] } },
{ "type": "Feature", "properties": { "cat": 428, "pk_uid": 428, "nombre": "SANTA TERESA SUR", "canton": "SAN CARLOS" }, "geometry": { "type": "Point", "coordinates": [ -84.556187629999982, 10.50330999 ] } },
{ "type": "Feature", "properties": { "cat": 429, "pk_uid": 429, "nombre": "SANTO DOMINGO", "canton": "SAN CARLOS" }, "geometry": { "type": "Point", "coordinates": [ -84.586859579999981, 10.50048808 ] } },
{ "type": "Feature", "properties": { "cat": 430, "pk_uid": 430, "nombre": "SONAFLUCA", "canton": "SAN CARLOS" }, "geometry": { "type": "Point", "coordinates": [ -84.602710439999981, 10.4920539 ] } },
{ "type": "Feature", "properties": { "cat": 431, "pk_uid": 431, "nombre": "TERRON COLORADO", "canton": "SAN CARLOS" }, "geometry": { "type": "Point", "coordinates": [ -84.520746369999983, 10.55931544 ] } },
{ "type": "Feature", "properties": { "cat": 432, "pk_uid": 432, "nombre": "TRECE DE NOVIEMBRE", "canton": "SAN CARLOS" }, "geometry": { "type": "Point", "coordinates": [ -84.724513529999982, 10.62056898 ] } },
{ "type": "Feature", "properties": { "cat": 433, "pk_uid": 433, "nombre": "TRES AMIGOS", "canton": "SAN CARLOS" }, "geometry": { "type": "Point", "coordinates": [ -84.285622599999982, 10.47809414 ] } },
{ "type": "Feature", "properties": { "cat": 434, "pk_uid": 434, "nombre": "TRES ESQUINAS", "canton": "SAN CARLOS" }, "geometry": { "type": "Point", "coordinates": [ -84.607782399999977, 10.45149721 ] } },
{ "type": "Feature", "properties": { "cat": 435, "pk_uid": 435, "nombre": "TRES Y TRES", "canton": "SAN CARLOS" }, "geometry": { "type": "Point", "coordinates": [ -84.578160799999978, 10.65510638 ] } },
{ "type": "Feature", "properties": { "cat": 436, "pk_uid": 436, "nombre": "ULIMA", "canton": "SAN CARLOS" }, "geometry": { "type": "Point", "coordinates": [ -84.545180959999982, 10.33106205 ] } },
{ "type": "Feature", "properties": { "cat": 437, "pk_uid": 437, "nombre": "VASCONIA", "canton": "SAN CARLOS" }, "geometry": { "type": "Point", "coordinates": [ -84.358984329999984, 10.47621483 ] } },
{ "type": "Feature", "properties": { "cat": 438, "pk_uid": 438, "nombre": "VIENTO FRESCO", "canton": "SAN CARLOS" }, "geometry": { "type": "Point", "coordinates": [ -84.358984329999984, 10.47621483 ] } },
{ "type": "Feature", "properties": { "cat": 439, "pk_uid": 439, "nombre": "VILLA MARIA", "canton": "SAN CARLOS" }, "geometry": { "type": "Point", "coordinates": [ -84.410975899999983, 10.42754221 ] } },
{ "type": "Feature", "properties": { "cat": 440, "pk_uid": 440, "nombre": "VUELTA DE KOOPER", "canton": "SAN CARLOS" }, "geometry": { "type": "Point", "coordinates": [ -84.358984329999984, 10.47621483 ] } },
{ "type": "Feature", "properties": { "cat": 441, "pk_uid": 441, "nombre": "YUCATAN", "canton": "SAN CARLOS" }, "geometry": { "type": "Point", "coordinates": [ -84.302523619999988, 10.47665897 ] } },
{ "type": "Feature", "properties": { "cat": 442, "pk_uid": 442, "nombre": "BAJO DEL VIRILLA", "canton": "HEREDIA" }, "geometry": { "type": "Point", "coordinates": [ -84.162782149999984, 9.98627979 ] } },
{ "type": "Feature", "properties": { "cat": 443, "pk_uid": 443, "nombre": "BRAULIO MORALES CERVANTES", "canton": "HEREDIA" }, "geometry": { "type": "Point", "coordinates": [ -84.13776670999998, 10.00924583 ] } },
{ "type": "Feature", "properties": { "cat": 444, "pk_uid": 444, "nombre": "CONSERVATORIO DE CASTELLA", "canton": "HEREDIA" }, "geometry": { "type": "Point", "coordinates": [ -84.162782149999984, 9.98627979 ] } },
{ "type": "Feature", "properties": { "cat": 445, "pk_uid": 445, "nombre": "GANDHI", "canton": "HEREDIA" }, "geometry": { "type": "Point", "coordinates": [ -84.133286709999979, 9.98943937 ] } },
{ "type": "Feature", "properties": { "cat": 446, "pk_uid": 446, "nombre": "I.M.A.S. DE ULLOA", "canton": "HEREDIA" }, "geometry": { "type": "Point", "coordinates": [ -84.174881039999988, 9.98290717 ] } },
{ "type": "Feature", "properties": { "cat": 447, "pk_uid": 447, "nombre": "INSTITUTO EDUCATIVO ABC", "canton": "HEREDIA" }, "geometry": { "type": "Point", "coordinates": [ -84.174881039999988, 9.98290717 ] } },
{ "type": "Feature", "properties": { "cat": 448, "pk_uid": 448, "nombre": "LA AURORA", "canton": "HEREDIA" }, "geometry": { "type": "Point", "coordinates": [ -84.172574949999984, 9.99788717 ] } },
{ "type": "Feature", "properties": { "cat": 449, "pk_uid": 449, "nombre": "LA GRAN SAMARIA", "canton": "HEREDIA" }, "geometry": { "type": "Point", "coordinates": [ -84.183822, 9.99339242 ] } },
{ "type": "Feature", "properties": { "cat": 450, "pk_uid": 450, "nombre": "LA PUEBLA", "canton": "HEREDIA" }, "geometry": { "type": "Point", "coordinates": [ -84.131071889999987, 10.00551993 ] } },
{ "type": "Feature", "properties": { "cat": 451, "pk_uid": 451, "nombre": "LOS LAGOS", "canton": "HEREDIA" }, "geometry": { "type": "Point", "coordinates": [ -84.133286709999979, 9.98943937 ] } },
{ "type": "Feature", "properties": { "cat": 452, "pk_uid": 452, "nombre": "MERCEDES SUR", "canton": "HEREDIA" }, "geometry": { "type": "Point", "coordinates": [ -84.152364349999985, 10.01815174 ] } },
{ "type": "Feature", "properties": { "cat": 453, "pk_uid": 453, "nombre": "NUEVO HORIZONTE", "canton": "HEREDIA" }, "geometry": { "type": "Point", "coordinates": [ -84.149889459999983, 10.00263992 ] } },
{ "type": "Feature", "properties": { "cat": 454, "pk_uid": 454, "nombre": "RAFAEL MOYA MURILLO", "canton": "HEREDIA" }, "geometry": { "type": "Point", "coordinates": [ -84.13776670999998, 10.00924583 ] } },
{ "type": "Feature", "properties": { "cat": 455, "pk_uid": 455, "nombre": "SAN FRANCISCO", "canton": "HEREDIA" }, "geometry": { "type": "Point", "coordinates": [ -84.149889459999983, 10.00263992 ] } },
{ "type": "Feature", "properties": { "cat": 456, "pk_uid": 456, "nombre": "SAN RAFAEL DE VARA BLANCA", "canton": "HEREDIA" }, "geometry": { "type": "Point", "coordinates": [ -84.158954719999983, 10.18302469 ] } },
{ "type": "Feature", "properties": { "cat": 457, "pk_uid": 457, "nombre": "ULLOA", "canton": "HEREDIA" }, "geometry": { "type": "Point", "coordinates": [ -84.162782149999984, 9.98627979 ] } },
{ "type": "Feature", "properties": { "cat": 458, "pk_uid": 458, "nombre": "VILLALOBOS", "canton": "HEREDIA" }, "geometry": { "type": "Point", "coordinates": [ -84.140919109999984, 9.97805215 ] } },
{ "type": "Feature", "properties": { "cat": 459, "pk_uid": 459, "nombre": "VIRGEN DEL SOCORRO", "canton": "HEREDIA" }, "geometry": { "type": "Point", "coordinates": [ -84.180100629999984, 10.18282993 ] } },
{ "type": "Feature", "properties": { "cat": 460, "pk_uid": 460, "nombre": "ABANGARITOS", "canton": "PUNTARENAS" }, "geometry": { "type": "Point", "coordinates": [ -85.048258409999988, 10.18107549 ] } },
{ "type": "Feature", "properties": { "cat": 461, "pk_uid": 461, "nombre": "ACAPULCO", "canton": "PUNTARENAS" }, "geometry": { "type": "Point", "coordinates": [ -84.825625839999987, 10.20991661 ] } },
{ "type": "Feature", "properties": { "cat": 462, "pk_uid": 462, "nombre": "ADVENTISTA DE MONTEVERDE", "canton": "PUNTARENAS" }, "geometry": { "type": "Point", "coordinates": [ -84.864188589999983, 10.32710661 ] } },
{ "type": "Feature", "properties": { "cat": 463, "pk_uid": 463, "nombre": "ALTOS DE SAN LUIS", "canton": "PUNTARENAS" }, "geometry": { "type": "Point", "coordinates": [ -84.864188589999983, 10.32710661 ] } },
{ "type": "Feature", "properties": { "cat": 464, "pk_uid": 464, "nombre": "AMERICANA SAN PATRICIO", "canton": "PUNTARENAS" }, "geometry": { "type": "Point", "coordinates": [ -84.746445099999988, 10.02657038000001 ] } }
]
}
