{
"type": "FeatureCollection",
"name": "hospitales",
"crs": { "type": "name", "properties": { "name": "urn:ogc:def:crs:OGC:1.3:CRS84" } },
"features": [
{ "type": "Feature", "properties": { "cat": 1, "cat_": 1, "nombre": "CENTRO NACIONAL DE CONTROL DE INTOXICACION", "canton": "SAN JOSE" }, "geometry": { "type": "Point", "coordinates": [ -84.109088084689475, 9.940882838316885 ] } },
{ "type": "Feature", "properties": { "cat": 2, "cat_": 2, "nombre": "HOSPITAL CARLOS LUIS VALVERDE VEGA SAN RAMON", "canton": "SAN RAMON" }, "geometry": { "type": "Point", "coordinates": [ -84.469315966097426, 10.087384538642899 ] } },
{ "type": "Feature", "properties": { "cat": 3, "cat_": 3, "nombre": "HOSPITAL CIMA SAN JOSE", "canton": "ESCAZU" }, "geometry": { "type": "Point", "coordinates": [ -84.135660475793216, 9.927793665075221 ] } },
{ "type": "Feature", "properties": { "cat": 4, "cat_": 4, "nombre": "HOSPITAL CLINICA BIBLICA", "canton": "SAN JOSE" }, "geometry": { "type": "Point", "coordinates": [ -84.083496749992449, 9.925040124521772 ] } },
{ "type": "Feature", "properties": { "cat": 5, "cat_": 5, "nombre": "HOSPITAL CLINICA CATOLICA DE LA PURISIMA", "canton": "GOICOECHEA" }, "geometry": { "type": "Point", "coordinates": [ -84.059965658176807, 9.946915706220995 ] } },
{ "type": "Feature", "properties": { "cat": 6, "cat_": 6, "nombre": "HOSPITAL CLINICA MONTE SINAI S.A.", "canton": "SAN CARLOS" }, "geometry": { "type": "Point", "coordinates": [ -84.43106889877626, 10.32643861405718 ] } },
{ "type": "Feature", "properties": { "cat": 7, "cat_": 7, "nombre": "HOSPITAL CLINICA SANTA RITA", "canton": "SAN JOSE" }, "geometry": { "type": "Point", "coordinates": [ -84.073511341397321, 9.930637281826973 ] } },
{ "type": "Feature", "properties": { "cat": 8, "cat_": 8, "nombre": "HOSPITAL CLINICA UNIBE", "canton": "TIBAS" }, "geometry": { "type": "Point", "coordinates": [ -84.080572551757882, 9.961773547045993 ] } },
{ "type": "Feature", "properties": { "cat": 9, "cat_": 9, "nombre": "HOSPITAL CRISTIANO JERUSALEM", "canton": "GOICOECHEA" }, "geometry": { "type": "Point", "coordinates": [ -84.052465295829847, 9.946926722819121 ] } },
{ "type": "Feature", "properties": { "cat": 10, "cat_": 10, "nombre": "HOSPITAL DE ALAJUELA", "canton": "ALAJUELA" }, "geometry": { "type": "Point", "coordinates": [ -84.219419567157317, 10.016894144498371 ] } },
{ "type": "Feature", "properties": { "cat": 11, "cat_": 11, "nombre": "HOSPITAL DE CIUDAD NEILY", "canton": "CORREDORES" }, "geometry": { "type": "Point", "coordinates": [ -82.945751612527005, 8.646109360897928 ] } },
{ "type": "Feature", "properties": { "cat": 12, "cat_": 12, "nombre": "HOSPITAL DE GUAPILES", "canton": "POCOCI" }, "geometry": { "type": "Point", "coordinates": [ -83.789233738634479, 10.216799746029512 ] } },
{ "type": "Feature", "properties": { "cat": 13, "cat_": 13, "nombre": "HOSPITAL DE SAN CARLOS", "canton": "SAN CARLOS" }, "geometry": { "type": "Point", "coordinates": [ -84.431098940159742, 10.326437348941161 ] } },
{ "type": "Feature", "properties": { "cat": 14, "cat_": 14, "nombre": "HOSPITAL DR. BLANCO CERVANTES", "canton": "SAN JOSE" }, "geometry": { "type": "Point", "coordinates": [ -84.087306039702, 9.93211658304466 ] } },
{ "type": "Feature", "properties": { "cat": 15, "cat_": 15, "nombre": "HOSPITAL DR. ENRIQUE BALTODANO LIBERIA", "canton": "LIBERIA" }, "geometry": { "type": "Point", "coordinates": [ -85.437457644202766, 10.629920845491508 ] } },
{ "type": "Feature", "properties": { "cat": 16, "cat_": 16, "nombre": "HOSPITAL DR. FERNANDO ESCALANTE PRADILLA", "canton": "PEREZ ZELEDON" }, "geometry": { "type": "Point", "coordinates": [ -83.702001223300726, 9.373179967139393 ] } },
{ "type": "Feature", "properties": { "cat": 17, "cat_": 17, "nombre": "HOSPITAL DR. MAX PERALTA", "canton": "CARTAGO" }, "geometry": { "type": "Point", "coordinates": [ -83.927579835428688, 9.862432254597319 ] } },
{ "type": "Feature", "properties": { "cat": 18, "cat_": 18, "nombre": "HOSPITAL DR. RAFAEL ANGEL CALDERON GUARDIA", "canton": "SAN JOSE" }, "geometry": { "type": "Point", "coordinates": [ -84.066915463984088, 9.933901610301088 ] } },
{ "type": "Feature", "properties": { "cat": 19, "cat_": 19, "nombre": "HOSPITAL DR. ROBERTO CHACON PAUT TRES RIOS", "canton": "LA UNION" }, "geometry": { "type": "Point", "coordinates": [ -83.984843023719449, 9.907003077487817 ] } },
{ "type": "Feature", "properties": { "cat": 20, "cat_": 20, "nombre": "HOSPITAL DR. TONY FACIO C. LIMON", "canton": "LIMON" }, "geometry": { "type": "Point", "coordinates": [ -83.029834515346423, 9.991682243742508 ] } },
{ "type": "Feature", "properties": { "cat": 21, "cat_": 21, "nombre": "HOSPITAL EVA CARIT, HOSPITAL DE LAS MUJERES", "canton": "SAN JOSE" }, "geometry": { "type": "Point", "coordinates": [ -84.08252904455972, 9.927787873356948 ] } },
{ "type": "Feature", "properties": { "cat": 22, "cat_": 22, "nombre": "HOSPITAL LA ANEXION NICOYA", "canton": "NICOYA" }, "geometry": { "type": "Point", "coordinates": [ -85.453262749117314, 10.142764633965912 ] } },
{ "type": "Feature", "properties": { "cat": 23, "cat_": 23, "nombre": "HOSPITAL MEXICO", "canton": "SAN JOSE" }, "geometry": { "type": "Point", "coordinates": [ -84.116177746866725, 9.956110521706757 ] } },
{ "type": "Feature", "properties": { "cat": 24, "cat_": 24, "nombre": "HOSPITAL MONSEÑOR SANABRIA PUNTARENAS", "canton": "PUNTARENAS" }, "geometry": { "type": "Point", "coordinates": [ -84.744745896129018, 9.979433837035785 ] } },
{ "type": "Feature", "properties": { "cat": 25, "cat_": 25, "nombre": "HOSPITAL NACIONAL DE NIÑOS DR. CARLOS SAENZ HERRERA", "canton": "SAN JOSE" }, "geometry": { "type": "Point", "coordinates": [ -84.088370615600851, 9.933367549446862 ] } },
{ "type": "Feature", "properties": { "cat": 26, "cat_": 26, "nombre": "HOSPITAL NACIONAL DE REHABILITACION DR. HUMBERTO ARAYA ROJAS (CENARE)", "canton": "SAN JOSE" }, "geometry": { "type": "Point", "coordinates": [ -84.116283539194072, 9.956040705625407 ] } },
{ "type": "Feature", "properties": { "cat": 27, "cat_": 27, "nombre": "HOSPITAL NACIONAL PSIQUIATRICO MANUEL ANTONIO CHAPUI", "canton": "SAN JOSE" }, "geometry": { "type": "Point", "coordinates": [ -84.134642024606563, 9.945783142057047 ] } },
{ "type": "Feature", "properties": { "cat": 28, "cat_": 28, "nombre": "HOSPITAL SAN FRANCISCO DE ASIS GRECIA", "canton": "GRECIA" }, "geometry": { "type": "Point", "coordinates": [ -84.31082683890061, 10.073124491582629 ] } },
{ "type": "Feature", "properties": { "cat": 29, "cat_": 29, "nombre": "HOSPITAL SAN JUAN DE DIOS", "canton": "SAN JOSE" }, "geometry": { "type": "Point", "coordinates": [ -84.086019576382157, 9.933494693705295 ] } },
{ "type": "Feature", "properties": { "cat": 30, "cat_": 30, "nombre": "HOSPITAL SAN RAFAEL DE ALAJUELA", "canton": "ALAJUELA" }, "geometry": { "type": "Point", "coordinates": [ -84.212713381317585, 10.016953886149118 ] } },
{ "type": "Feature", "properties": { "cat": 31, "cat_": 31, "nombre": "HOSPITAL SAN VICENTE PAUL HEREDIA", "canton": "HEREDIA" }, "geometry": { "type": "Point", "coordinates": [ -84.116428454705826, 9.998636604294177 ] } }
]
}
